{
  "version": 0.6,
  "generator": "Overpass API 0.7.62.8 e802775f",
  "osm3s": {
    "timestamp_osm_base": "2025-12-21T00:55:12Z",
    "timestamp_areas_base": "2025-12-20T17:13:00Z",
    "copyright": "The data included in this document is from www.openstreetmap.org. The data is made available under ODbL."
  },
  "elements": [

{
  "type": "node",
  "id": 27043265,
  "lat": 28.4963633,
  "lon": 34.5145652,
  "tags": {
    "int_name": "Dahab",
    "name": "دهب",
    "name:ar": "دهب",
    "name:de": "Dahab",
    "name:en": "Dahab",
    "name:es": "Dahab",
    "name:fa": "دهب",
    "name:fr": "Dahab",
    "name:he": "דהב",
    "name:hi": "दहब",
    "name:hu": "Dahab",
    "name:ko": "다합",
    "name:ml": "ദഹബ്",
    "name:ru": "Дахаб",
    "name:uk": "Дахаб",
    "name:zh-Hans": "达哈卜",
    "name:zh-Hant": "達哈卜",
    "place": "city",
    "population": "12000",
    "wikidata": "Q370495",
    "wikimedia_commons": "Category:Dahab",
    "wikipedia": "ar:دهب"
  }
},
{
  "type": "node",
  "id": 27043266,
  "lat": 28.5050301,
  "lon": 34.5141469,
  "tags": {
    "name": "عصلة",
    "name:ar": "عصلة",
    "name:en": "Assalah",
    "name:es": "Assala",
    "name:hu": "Asszalah",
    "name:ru": "Ассала",
    "place": "suburb"
  }
},
{
  "type": "node",
  "id": 27043267,
  "lat": 28.4849689,
  "lon": 34.4961162,
  "tags": {
    "alt_name": "Dahab City",
    "name": "Medina",
    "place": "suburb"
  }
},
{
  "type": "node",
  "id": 27082687,
  "lat": 27.9132571,
  "lon": 34.3266603,
  "tags": {
    "name": "Naama Bay",
    "name:ar": "خليج نعامة",
    "name:ru": "Наама-Бей",
    "place": "suburb"
  }
},
{
  "type": "node",
  "id": 27082688,
  "lat": 28.0424658,
  "lon": 34.4336718,
  "tags": {
    "name": "خليج نبق",
    "name:ar": "خليج نبق",
    "name:en": "Nabq Bay",
    "name:ru": "Набк-Бей",
    "place": "suburb"
  }
},
{
  "type": "node",
  "id": 27083484,
  "lat": 27.8612753,
  "lon": 34.2985104,
  "tags": {
    "alt_name": "شرم القديمة",
    "name": "شرم القديمة",
    "name:ar": "شرم القديمة",
    "name:en": "Old Sharm",
    "name:ru": "Старый Шарм",
    "place": "suburb"
  }
},
{
  "type": "node",
  "id": 27084072,
  "lat": 27.2225560,
  "lon": 33.8307062,
  "tags": {
    "alt_name:ar": "غردقة",
    "alt_name:it": "Urgada",
    "name": "الغردقة",
    "name:ar": "الغردقة",
    "name:cs": "Hurghada",
    "name:de": "Hurghada",
    "name:en": "Hurghada",
    "name:eo": "Hurghada",
    "name:es": "Hurgada",
    "name:et": "Hurghada",
    "name:fa": "غردقه",
    "name:fi": "Hurghada",
    "name:fr": "Hurghada",
    "name:hi": "हुरघादा",
    "name:hu": "Gurdaka",
    "name:it": "Hurghada",
    "name:ko": "후르가다",
    "name:lt": "Hurgada",
    "name:ml": "ഹുർഘാദ",
    "name:nl": "Hurghada",
    "name:pl": "Hurghada",
    "name:ru": "Хургада",
    "name:tr": "Hurgada",
    "name:uk": "Хургада",
    "name:yue": "洪加達",
    "name:zh": "古尔代盖/洪加達",
    "name:zh-Hans": "古尔代盖",
    "name:zh-Hant": "洪加達",
    "place": "city",
    "population": "160901",
    "population:date": "2006",
    "wikidata": "Q187284",
    "wikimedia_commons": "Category:Hurghada",
    "wikipedia": "ar:الغردقة"
  }
},
{
  "type": "node",
  "id": 27133981,
  "lat": 27.3989266,
  "lon": 33.6741556,
  "tags": {
    "int_name": "El Guna",
    "name": "الجونة",
    "name:ar": "الجونة",
    "name:arz": "الجونه",
    "name:bg": "Гуна",
    "name:de": "El Guna",
    "name:en": "El Gouna",
    "name:eo": "El Gona",
    "name:fa": "الجونه",
    "name:fi": "El Gona",
    "name:fr": "El Gouna",
    "name:nb": "El Gona",
    "name:nl": "El Gona",
    "name:pl": "Al Dżuna",
    "name:ru": "Эль Гуна",
    "name:sv": "El Gona",
    "name:uk": "Ель Гуна",
    "place": "town",
    "population": "15000",
    "wikidata": "Q286510",
    "wikimedia_commons": "Category:El Gouna",
    "wikipedia": "ar:الجونة"
  }
},
{
  "type": "node",
  "id": 27135821,
  "lat": 25.0699920,
  "lon": 34.8938170,
  "tags": {
    "name": "مرسى علم",
    "name:ar": "مرسى علم",
    "name:azb": "مرسی علم",
    "name:bg": "Марса Алам",
    "name:de": "Marsa Alam",
    "name:el": "Μάρσα Αλάμ",
    "name:en": "Marsa Alam",
    "name:es": "Marsa Alam",
    "name:fa": "مرسی علم",
    "name:fr": "Marsa Alam",
    "name:hi": "मरसा आलम",
    "name:hy": "Մարսա Ալամ",
    "name:ml": "മർസ ആലം",
    "name:ru": "Марса Алам",
    "name:tr": "Marsa Alem",
    "name:uk": "Марса-Алам",
    "name:ur": "مرسی علم",
    "place": "city",
    "population": "1918",
    "population:date": "2006",
    "wikidata": "Q1001901",
    "wikimedia_commons": "Category:Marsa Alam",
    "wikipedia": "ar:مرسى علم",
    "wikipedia:ar": "مرسى علم"
  }
},
{
  "type": "node",
  "id": 27136155,
  "lat": 26.1048360,
  "lon": 34.2797640,
  "tags": {
    "alt_name:es": "El-Qoseir;El Quseir;El-Quseir",
    "alt_name:it": "Kosseir",
    "name": "القصير",
    "name:ar": "القصير",
    "name:cs": "Quseir",
    "name:de": "Al-Qusair",
    "name:en": "El Quseir",
    "name:es": "El Qoseir",
    "name:fa": "قصیر",
    "name:fr": "Al Qusair",
    "name:grc": "Λευκός Λιμήν",
    "name:hi": "अल क़ोसियर",
    "name:hu": "Kuszeir",
    "name:it": "Al Quseir",
    "name:ml": "അൽ-ഖുസൈർ",
    "name:ru": "Эль Кусейр",
    "name:tr": "El-Kuseyr",
    "name:uk": "Эль Кусейр",
    "name:ur": "قصیر",
    "place": "city",
    "population": "24344",
    "population:date": "2006",
    "wikidata": "Q310751",
    "wikimedia_commons": "Category:Al-Qusayr, Egypt",
    "wikipedia": "ar:القصير (مصر)"
  }
},
{
  "type": "node",
  "id": 27136248,
  "lat": 26.7633325,
  "lon": 33.9383817,
  "tags": {
    "alt_name": "بور سفاجة",
    "alt_name:en": "Port Safaga",
    "alt_name:uk": "Порт-Сафага",
    "int_name": "Safaga",
    "name": "سفاجا",
    "name:ar": "سفاجا",
    "name:cs": "Safaga",
    "name:de": "Safaga",
    "name:en": "Safaga",
    "name:es": "Safaga",
    "name:fr": "Port Safaga",
    "name:hu": "Szafaga",
    "name:it": "Safaga",
    "name:ml": "സഫാഗ",
    "name:ru": "Сафага",
    "name:sv": "Safaga",
    "name:uk": "Сафага",
    "place": "city",
    "population": "28261",
    "population:date": "2006",
    "wikidata": "Q986325",
    "wikimedia_commons": "Category:Safaga",
    "wikipedia": "en:Safaga"
  }
},
{
  "type": "node",
  "id": 27564966,
  "lat": 29.9744980,
  "lon": 32.5370860,
  "tags": {
    "name": "السويس",
    "name:af": "Suez",
    "name:ar": "السويس",
    "name:az": "Süveyş",
    "name:az-Arab": "سوئز",
    "name:azb": "سوئز",
    "name:ba": "Сүәйс (Суэц)",
    "name:be": "Суэц",
    "name:bg": "Суец",
    "name:bs": "Suez",
    "name:ca": "Suez",
    "name:ce": "Сувайс",
    "name:cs": "Suez",
    "name:csb": "Suez",
    "name:da": "Suez",
    "name:de": "Sues",
    "name:el": "Σουέζ",
    "name:en": "Suez",
    "name:eo": "Suezo",
    "name:es": "Suez",
    "name:et": "Suess",
    "name:eu": "Suez",
    "name:fa": "سوئز",
    "name:fi": "Suez",
    "name:fr": "Suez",
    "name:fy": "Suëz",
    "name:ga": "Suais",
    "name:ha": "Suez",
    "name:he": "סואץ",
    "name:hi": "स्वेज़",
    "name:hr": "Suez",
    "name:hu": "Szuez",
    "name:hy": "Սուեզ",
    "name:id": "Suez",
    "name:is": "Súes",
    "name:it": "Suez",
    "name:ja": "スエズ",
    "name:jv": "Suèz",
    "name:ka": "სუეცი",
    "name:kn": "ಸುವೈಸ್",
    "name:ko": "수에즈",
    "name:la": "Suesia",
    "name:lt": "Suecas",
    "name:lv": "Suvaisa",
    "name:mg": "Suez",
    "name:ml": "സൂയസ്",
    "name:mr": "सुएझ",
    "name:ms": "Suez",
    "name:nb": "Suez",
    "name:nl": "Suez",
    "name:nn": "Suez",
    "name:oc": "Suèz",
    "name:os": "Суэц",
    "name:pl": "Suez",
    "name:pt": "Suez",
    "name:ro": "Suez",
    "name:ru": "Суэц",
    "name:sk": "Suez",
    "name:sq": "Suezi",
    "name:sr": "Суец",
    "name:sv": "Suez",
    "name:sw": "Suez",
    "name:th": "สุเอซ",
    "name:tr": "Süveyş",
    "name:uk": "Суец",
    "name:ur": "سوئیز",
    "name:uz": "Suvaysh",
    "name:vi": "Suez",
    "name:yue": "蘇伊士",
    "name:zh": "蘇伊士/苏伊士",
    "name:zh-Hans": "苏伊士",
    "name:zh-Hant": "蘇伊士",
    "name:zu": "Suez",
    "place": "city",
    "population": "488125",
    "wikidata": "Q134514",
    "wikimedia_commons": "Category:Suez",
    "wikipedia": "ar:السويس",
    "wikipedia:es": "Suez"
  }
},
{
  "type": "node",
  "id": 27564975,
  "lat": 31.2632350,
  "lon": 32.3055050,
  "tags": {
    "alt_name": "بور سعيد",
    "alt_name:ar": "بور سعيد",
    "int_name": "Būr Saʿīd",
    "name": "بورسعيد",
    "name:af": "Port Said",
    "name:ar": "بورسعيد",
    "name:az-Arab": "پورت‌سعید",
    "name:azb": "پورت‌سعید",
    "name:de": "Port Said",
    "name:el": "Πορτ Σάιντ",
    "name:en": "Port Said",
    "name:eo": "Port Said",
    "name:es": "Puerto Saíd",
    "name:et": "Port Said",
    "name:eu": "Port Said",
    "name:fa": "پورت‌سعید",
    "name:fi": "Port Said",
    "name:fr": "Port Saïd",
    "name:he": "פורט סעיד",
    "name:hi": "पोर्ट सईद",
    "name:hr": "Port Said",
    "name:hu": "Port Szaíd",
    "name:hy": "Պորտ Սաիդ",
    "name:kk-Arab": "پورت-ساىيد",
    "name:ko": "포트사이드",
    "name:lt": "Port Saidas",
    "name:ml": "സയീദ് തുറമുഖം",
    "name:nl": "Port Said",
    "name:pa": "ਬੋਰ ਸਈਦ",
    "name:pl": "Port Said",
    "name:pt": "Porto Saíde",
    "name:ru": "Порт-Саид",
    "name:sk": "Port Said",
    "name:sv": "Port Said",
    "name:tr": "Bur Said",
    "name:uk": "Порт-Саїд",
    "name:ur": "پورٹ سعید",
    "name:zh": "塞得港",
    "place": "city",
    "population": "538378",
    "wikidata": "Q134509",
    "wikimedia_commons": "Category:Port Said",
    "wikipedia": "ar:بورسعيد",
    "wikipedia:ar": "بورسعيد"
  }
},
{
  "type": "node",
  "id": 27565020,
  "lat": 31.1991806,
  "lon": 29.8951716,
  "tags": {
    "admin_level": "4",
    "alt_name:cop": "ⲣⲁⲕⲟϯ",
    "alt_name:ml": "അൽ-ഇസ്കന്ദ്രിയ",
    "capital": "4",
    "ele": "5",
    "name": "الإسكندرية",
    "name:af": "Alexandrië",
    "name:am": "እስክንድርያ",
    "name:an": "Aleixandría",
    "name:ar": "الإسكندرية",
    "name:arc": "ܐܠܟܣܢܕܪܝܐ",
    "name:az": "İsgəndəriyyə",
    "name:az-Arab": "ایسکندریه",
    "name:azb": "ایسکندریه",
    "name:ba": "Искәндәриә",
    "name:be": "Александрыя",
    "name:bg": "Александрия",
    "name:bn": "আলেকজান্দ্রিয়া",
    "name:bo": "ཡ་ལི་ཧྲན་ད",
    "name:br": "Aleksandria",
    "name:bs": "Aleksandrija",
    "name:ca": "Alexandria",
    "name:ce": "Искандри",
    "name:ckb": "ئەسکەندەریە",
    "name:cop": "ⲁⲗⲉⲝⲁⲛⲇⲣⲓⲁ",
    "name:cs": "Alexandrie",
    "name:cy": "Alexandria",
    "name:da": "Alexandria",
    "name:de": "Alexandria",
    "name:el": "Αλεξάνδρεια",
    "name:en": "Alexandria",
    "name:eo": "Aleksandrio",
    "name:es": "Alejandría",
    "name:et": "Aleksandria",
    "name:eu": "Alexandria",
    "name:fa": "اسکندریه",
    "name:ff": "Alexandria",
    "name:fi": "Aleksandria",
    "name:fr": "Alexandrie",
    "name:fy": "Aleksanderje",
    "name:ga": "Cathair Alastair",
    "name:gl": "Alexandría",
    "name:grc": "Ἀλεξάνδρεια",
    "name:gu": "એલેક્ઝાન્ડ્રિયા",
    "name:ha": "Alexandria",
    "name:he": "אלכסנדריה",
    "name:hi": "सिकन्दरिया",
    "name:hr": "Aleksandrija",
    "name:hu": "Alexandria",
    "name:hy": "Ալեքսանդրիա",
    "name:ia": "Alexandria",
    "name:id": "Aleksandria",
    "name:ie": "Alexandria",
    "name:io": "Alexandria",
    "name:is": "Alexandría",
    "name:it": "Alessandria",
    "name:ja": "アレクサンドリア",
    "name:jv": "Alexandria",
    "name:ka": "ალექსანდრია",
    "name:kab": "Taskendrit",
    "name:kk": "Александрия",
    "name:kn": "ಸಿಕಂದರಿಯಾ",
    "name:ko": "알렉산드리아",
    "name:ks": "اسکندریہ",
    "name:ku": "Îskenderiye",
    "name:kv": "Ӧльӧксандрия",
    "name:ky": "Александрия",
    "name:la": "Alexandria",
    "name:li": "Alexandrië",
    "name:lt": "Aleksandrija",
    "name:lv": "Aleksandrija",
    "name:mg": "Aleksandria",
    "name:mi": "Arekehānaria",
    "name:mk": "Александрија",
    "name:ml": "അലക്സാണ്ട്രിയ",
    "name:mn": "Александриа",
    "name:mr": "सिकन्दरिया",
    "name:ms": "Iskandariah",
    "name:my": "အလက်ဇန္ဒရီးယားမြို့",
    "name:nb": "Alexandria",
    "name:nl": "Alexandrië",
    "name:nn": "Alexandria",
    "name:oc": "Alexàndria",
    "name:os": "Александрия",
    "name:pa": "ਸਿਕੰਦਰੀਆ",
    "name:pl": "Aleksandria",
    "name:pnb": "اسکندریہ",
    "name:ps": "اسکندریه",
    "name:pt": "Alexandria",
    "name:qu": "Aliksanriya",
    "name:ro": "Alexandria",
    "name:ru": "Александрия",
    "name:sc": "Lisàndria",
    "name:sd": "اسڪندريہ",
    "name:sk": "Alexandria",
    "name:sl": "Aleksandrija",
    "name:sn": "Alexandria",
    "name:so": "Askandariya",
    "name:sq": "Aleksandria",
    "name:sr": "Александрија",
    "name:sv": "Alexandria",
    "name:sw": "Aleksandria",
    "name:syc": "ܐܠܟܣܢܕܪܝܐ",
    "name:szl": "Aleksandryjo",
    "name:ta": "அலெக்சாந்திரியா",
    "name:te": "అలెగ్జాండ్రియా",
    "name:tg": "Искандария",
    "name:th": "อะเล็กซานเดรีย",
    "name:tl": "Alehandriya",
    "name:tr": "İskenderiye",
    "name:tw": "Alesandria",
    "name:ug": "ئىسكەندەرىيە",
    "name:uk": "Александрія",
    "name:ur": "اسکندریہ",
    "name:uz": "Iskandariya",
    "name:vi": "Alexandria",
    "name:vo": "Iskandariyya",
    "name:wo": "Alegsàndiri",
    "name:yi": "אלעקסאנדריע",
    "name:zh": "亚历山大港",
    "name:zh-Hans": "亚历山大",
    "name:zh-Hant": "亞歷山大港",
    "name:zu": "Alexandria",
    "place": "city",
    "population": "4546231",
    "population:date": "2013",
    "source:name:br": "ofis publik ar brezhoneg",
    "wikidata": "Q87",
    "wikimedia_commons": "Category:Alexandria",
    "wikipedia": "ar:الإسكندرية"
  }
},
{
  "type": "node",
  "id": 27565120,
  "lat": 29.9870753,
  "lon": 31.2118063,
  "tags": {
    "alt_name:eo": "Giza;Gizeh;Ĝiza",
    "name": "الجيزة",
    "name:ar": "الجيزة",
    "name:be": "Гіза",
    "name:ceb": "Al Jizah",
    "name:cop": "ϯⲠⲉⲣⲥⲓⲟⲥ",
    "name:cs": "Gíza",
    "name:de": "Giseh",
    "name:en": "Giza",
    "name:eo": "Gizo",
    "name:es": "Guiza",
    "name:et": "Giza",
    "name:fa": "جیزه",
    "name:fi": "Giza",
    "name:fr": "Gizeh",
    "name:he": "גיזה",
    "name:hi": "गीज़ा",
    "name:hr": "Giza",
    "name:hu": "Gíza",
    "name:it": "Giza",
    "name:ko": "기자",
    "name:ml": "ഗിസ",
    "name:nl": "Gizeh",
    "name:oc": "Giza",
    "name:pl": "Giza",
    "name:ru": "Гиза",
    "name:sr": "Гиза",
    "name:sr-Latn": "Giza",
    "name:sv": "Giza",
    "name:uk": "Гіза",
    "name:ur": "جیزہ",
    "name:yue": "加沙",
    "name:zh-Hans": "吉萨",
    "name:zh-Hant": "吉薩",
    "place": "city",
    "population": "2681863",
    "wikidata": "Q81788",
    "wikimedia_commons": "Category:Giza",
    "wikipedia": "en:Giza"
  }
},
{
  "type": "node",
  "id": 29555531,
  "lat": 29.5934870,
  "lon": 32.7185360,
  "tags": {
    "alt_name:ru": "Рас-Судр",
    "name": "رأس سدر",
    "name:ar": "رأس سدر",
    "name:de": "Sudr Kap",
    "name:en": "Sudr Cape",
    "name:es": "Capa de Sudr",
    "name:fr": "Cap de Sudr",
    "name:ml": "റാസ് സിദർ",
    "name:ru": "Рас-Сидр",
    "name:uk": "Рас-Судр",
    "place": "town",
    "population": "1725"
  }
},
{
  "type": "node",
  "id": 29593397,
  "lat": 29.9007515,
  "lon": 32.4569409,
  "tags": {
    "name": "الأدبية",
    "name:ar": "الأدبية",
    "name:de": "Al-Adabiyya",
    "name:en": "Al Adabiyah",
    "name:fa": "ادبیه",
    "name:fr": "El-Adabîya",
    "name:ml": "അൽ-അദബിയ",
    "name:uk": "Аль-Адабія",
    "place": "town"
  }
},
{
  "type": "node",
  "id": 29906954,
  "lat": 25.5317110,
  "lon": 34.6337620,
  "tags": {
    "alt_name": "بور غالب",
    "name": "بور غالب",
    "name:ar": "بور غالب",
    "name:cs": "Port Ghálib",
    "name:de": "Port Ghālib",
    "name:en": "Port Ghalib",
    "name:fr": "Port Ghalib",
    "name:it": "Port Ghalib",
    "name:ml": "ഗാലിബ് തുറമുഖം",
    "name:ru": "Порт Галиб",
    "name:uk": "Порт Галіб",
    "place": "town",
    "wikidata": "Q12199863",
    "wikimedia_commons": "Category:Port Ghalib",
    "wikipedia": "ar:بورت غالب"
  }
},
{
  "type": "node",
  "id": 31353319,
  "lat": 30.4624974,
  "lon": 31.1840630,
  "tags": {
    "alt_name:pl": "Benha",
    "name": "بنها",
    "name:ar": "بنها",
    "name:en": "Banha",
    "name:eo": "Banha",
    "name:es": "Banha",
    "name:et": "Banhā",
    "name:fa": "بنها",
    "name:fr": "Banha",
    "name:he": "בנהא",
    "name:hi": "बनहा",
    "name:ko": "벤하",
    "name:ml": "ബൻഹ",
    "name:pl": "Banha",
    "name:ru": "Бенха",
    "name:sv": "Banha",
    "name:tr": "Benhâ",
    "name:uk": "Бaнха",
    "note": "reverted to arabic",
    "place": "city",
    "population": "167029",
    "wikidata": "Q336966",
    "wikimedia_commons": "Category:Banha",
    "wikipedia": "en:Benha"
  }
},
{
  "type": "node",
  "id": 31578820,
  "lat": 31.1727635,
  "lon": 31.2209802,
  "tags": {
    "name": "بيلا",
    "name:ar": "بيلا",
    "name:en": "Biala",
    "name:fr": "Biyala",
    "place": "town",
    "wikidata": "Q6022753",
    "wikipedia": "en:Biyala"
  }
},
{
  "type": "node",
  "id": 31582411,
  "lat": 31.0908163,
  "lon": 31.2432469,
  "tags": {
    "name": "تيرة",
    "name:ar": "تيرة",
    "name:en": "Tirah",
    "name:fr": "Terwa",
    "place": "village"
  }
},
{
  "type": "node",
  "id": 31582434,
  "lat": 31.0375660,
  "lon": 31.3864900,
  "tags": {
    "int_name": "Mansura",
    "name": "المنصورة",
    "name:ar": "المنصورة",
    "name:en": "El Mansura",
    "name:eo": "El Mansura",
    "name:es": "El Mansurá",
    "name:et": "Al Manşūrah",
    "name:eu": "Mansura",
    "name:fa": "منصوره",
    "name:fr": "Mansourah",
    "name:he": "מנסורה",
    "name:hi": "मंसूरा",
    "name:hr": "Mansura",
    "name:ko": "만수라",
    "name:lt": "Mansura",
    "name:ml": "മൻസൂറ",
    "name:nl": "El-Mansoera",
    "name:pt": "Almançora",
    "name:ru": "Эль Мансура",
    "name:sv": "Mansura",
    "name:tr": "Mansûre",
    "name:uk": "Ель Мансура",
    "place": "city",
    "population": "420195",
    "wikidata": "Q223587",
    "wikimedia_commons": "Category:El Mansoura",
    "wikipedia": "en:Mansoura, Egypt"
  }
},
{
  "type": "node",
  "id": 31582451,
  "lat": 30.9723517,
  "lon": 31.1683002,
  "tags": {
    "alt_name": "محلة الكبرى",
    "int_name": "Mahalla el Kubra, Mahalla al Kubra",
    "name": "المحلة الكبرى",
    "name:ar": "محلة الكبرى",
    "name:ar1": "محلة الكبرى",
    "name:de": "Mahalla al Kubra",
    "name:en": "El Mahalla El Kubra",
    "name:et": "Al-Maḩallah al-Kubrá",
    "name:eu": "Al-Mahalla al-Kubra",
    "name:fa": "محله الکبری",
    "name:fr": "Mahalla al Kubra",
    "name:hr": "Al Mahala al Kubra",
    "name:ml": "അൽ മഹല്ല അൽ കുബ്ര",
    "name:ru": "Эль-Махалла-эль-Кубра",
    "name:uk": "Ель-Махалла-ель-Кубра",
    "name:zh": "大迈哈莱/大邁哈萊",
    "name:zh-Hans": "大邁哈萊",
    "name:zh-Hant": "大迈哈莱",
    "place": "city",
    "population": "431052",
    "wikidata": "Q312723",
    "wikimedia_commons": "Category:El-Mahalla El-Kubra",
    "wikipedia": "en:El Mahalla El Kubra"
  }
},
{
  "type": "node",
  "id": 248035196,
  "lat": 29.9114539,
  "lon": 33.7459874,
  "tags": {
    "alt_name:ar": "نِخِل",
    "ele": "420.6",
    "name": "نخل",
    "name:ar": "نخل",
    "name:azb": "نخل",
    "name:de": "Nakhl",
    "name:en": "Nekhel",
    "name:fa": "نخل",
    "name:fr": "Nakhl",
    "name:ks": "نخل",
    "name:ml": "നഖ്ൽ",
    "name:ru": "Нахль",
    "name:sv": "Nekhel",
    "name:uk": "Нахль",
    "name:ur": "نخل",
    "place": "city",
    "population": "11023",
    "population:date": "2006",
    "source:population": "https://en.wikipedia.org/wiki/Nekhel",
    "wikidata": "Q5602740",
    "wikimedia_commons": "Category:Nekhel",
    "wikipedia": "ar:نخل (مصر)"
  }
},
{
  "type": "node",
  "id": 270226451,
  "lat": 30.2806320,
  "lon": 31.2060510,
  "tags": {
    "name": "قها",
    "name:ar": "قها",
    "name:en": "Qaha",
    "name:fr": "Qaha",
    "name:ml": "ഖഹ",
    "place": "town",
    "wikidata": "Q7265828",
    "wikipedia": "en:Qaha"
  }
},
{
  "type": "node",
  "id": 270227007,
  "lat": 30.3540508,
  "lon": 31.2009790,
  "tags": {
    "name": "طوخ",
    "name:ar": "طوخ",
    "name:en": "Tukh",
    "name:fa": "طوخ",
    "name:fr": "Toukh",
    "name:ml": "തൂഖ്",
    "place": "town",
    "wikidata": "Q23934694",
    "wikipedia": "en:Toukh"
  }
},
{
  "type": "node",
  "id": 270227401,
  "lat": 30.7169001,
  "lon": 31.2577644,
  "tags": {
    "alt_name": "ميت غمر و كفر البطل",
    "int_name": "Mīt Ghamr, Mit Ghamr, Mit Ghamr wa Kafr al Batal",
    "name": "ميت غمر",
    "name:ar": "ميت غمر",
    "name:de": "Mit Ghamr",
    "name:en": "Mit Ghamr",
    "name:fa": "ميت غمر",
    "name:fr": "Mit Ghamr",
    "name:ml": "മീത്ത് ഗമർ",
    "name:ru": "Мит-Гамр",
    "place": "town",
    "population": "119000",
    "wikidata": "Q337123",
    "wikimedia_commons": "Category:Mit Ghamr",
    "wikipedia": "en:Mit Ghamr"
  }
},
{
  "type": "node",
  "id": 270227440,
  "lat": 30.7152872,
  "lon": 31.2470999,
  "tags": {
    "alt_name": "زفتى",
    "int_name": "Zifta, Zifta",
    "name": "زفتى",
    "name:ar": "زفتى",
    "name:ar1": "زفتى",
    "name:de": "Zifta",
    "name:en": "Zifta",
    "name:fr": "Zifta",
    "place": "town",
    "population": "93740",
    "source:population": "http://www.citypopulation.de/Egypt-Cities.html",
    "wikidata": "Q2392142",
    "wikimedia_commons": "Category:Zifta",
    "wikipedia": "en:Zefta"
  }
},
{
  "type": "node",
  "id": 270227536,
  "lat": 30.9419854,
  "lon": 31.2903765,
  "tags": {
    "name": "اجا",
    "name:ar": "اجا",
    "name:en": "Aga",
    "name:es": "Ajā",
    "name:fa": "اجا (شهر)",
    "name:fr": "Aga",
    "name:pl": "Adża",
    "name:sv": "Ajā",
    "place": "town",
    "wikidata": "Q10961074",
    "wikipedia": "ar:أجا"
  }
},
{
  "type": "node",
  "id": 271613766,
  "lat": 30.0443879,
  "lon": 31.2357257,
  "tags": {
    "admin_level": "2",
    "alt_name:ml": "അൽ-ഖാഹിറ",
    "alt_name:vi": "Cai-rô",
    "capital": "yes",
    "capital_ISO3166-1": "yes",
    "ele": "68",
    "int_name": "Cairo",
    "is_capital": "country",
    "name": "القاهرة",
    "name:ace": "Al-Qahirah",
    "name:ady": "Каир",
    "name:af": "Kaïro",
    "name:ak": "Cairo",
    "name:am": "ካይሮ",
    "name:an": "O Caire",
    "name:ar": "القاهرة",
    "name:arz": "القاهره",
    "name:as": "কাইৰো",
    "name:ast": "El Cairu",
    "name:av": "Къагьира",
    "name:avk": "Alkaira",
    "name:awa": "काइरो",
    "name:az": "Qahirə",
    "name:ba": "Ҡәһир",
    "name:bat-smg": "Kairs",
    "name:bcl": "Cairo",
    "name:be": "Каір",
    "name:bg": "Кайро",
    "name:bh": "काहिरा",
    "name:bn": "কায়রো",
    "name:bo": "ཁ་ཡི་རོ",
    "name:br": "Kaero",
    "name:bs": "Kairo",
    "name:ca": "el Caire",
    "name:ce": "КъахӀира",
    "name:ceb": "Cairo",
    "name:chy": "Cairo",
    "name:ckb": "قاھیرە",
    "name:co": "U Cairu",
    "name:crh": "Qaire",
    "name:cs": "Káhira",
    "name:csb": "Kairo",
    "name:cv": "Каир",
    "name:cy": "Cairo",
    "name:da": "Kairo",
    "name:de": "Kairo",
    "name:diq": "Qahire",
    "name:dsb": "Kairo",
    "name:el": "Κάιρο",
    "name:en": "Cairo",
    "name:eo": "Kairo",
    "name:es": "El Cairo",
    "name:et": "Kairo",
    "name:eu": "Kairo",
    "name:ext": "El Cairu",
    "name:fa": "قاهره",
    "name:fi": "Kairo",
    "name:fo": "Keiro",
    "name:fr": "Le Caire",
    "name:frp": "Lo Cayiro",
    "name:frr": "Kairo",
    "name:fur": "El Cairo",
    "name:fy": "Kairo",
    "name:ga": "Caireo",
    "name:gd": "Cairo",
    "name:gl": "O Cairo - القاهرة",
    "name:gn": "Káiro",
    "name:gu": "કૈરો",
    "name:gv": "Cairo",
    "name:ha": "Kairo",
    "name:hak": "Cairo",
    "name:he": "קהיר",
    "name:hi": "काहिरा",
    "name:hif": "Cairo",
    "name:hr": "Kairo",
    "name:hsb": "Kairo",
    "name:ht": "Li Kè",
    "name:hu": "Kairó",
    "name:hy": "Կահիրե",
    "name:hyw": "Գահիրէ",
    "name:ia": "Cairo",
    "name:id": "Kairo",
    "name:ie": "Cairo",
    "name:ilo": "Cairo",
    "name:inh": "Каир",
    "name:io": "Kairo",
    "name:is": "Kaíró",
    "name:it": "Il Cairo",
    "name:ja": "カイロ",
    "name:jv": "Kairo",
    "name:ka": "კაირო",
    "name:kaa": "Al-Qahira",
    "name:kab": "Taqahirt",
    "name:ki": "Cairo",
    "name:kk": "Әл-Қаһира",
    "name:kl": "Cairo",
    "name:kn": "ಕೈರೋ",
    "name:ko": "카이로",
    "name:ks": "قاہرہ",
    "name:ku": "Qahîre",
    "name:kv": "Каир",
    "name:kw": "Cairo",
    "name:ky": "Каир",
    "name:la": "Cairus",
    "name:lad": "El Kairo",
    "name:lb": "Kairo",
    "name:lbe": "Кьагьира",
    "name:lez": "Каир",
    "name:lfn": "Qahira",
    "name:li": "Caïro",
    "name:lij": "O Cairo",
    "name:lmo": "El Cairo",
    "name:ln": "Kairo",
    "name:lo": "ໄຄໂຣ",
    "name:lt": "Kairas",
    "name:lv": "Kaira",
    "name:mad": "Kairo",
    "name:mai": "काइरो",
    "name:mdf": "Каир",
    "name:mg": "Kahira",
    "name:mhr": "Каир",
    "name:mi": "Kairo",
    "name:min": "Kairo",
    "name:mk": "Каиро",
    "name:ml": "കെയ്റോ",
    "name:mn": "Каир",
    "name:mr": "कैरो",
    "name:mrj": "Каир",
    "name:ms": "Kaherah",
    "name:mt": "Kajr",
    "name:mwl": "Cairo",
    "name:my": "ကိုင်ရိုမြို့",
    "name:myv": "Каир ош",
    "name:mzn": "قاهره",
    "name:na": "Cairo",
    "name:nah": "El Cairo",
    "name:nan": "Cairo",
    "name:nap": "Il cairo",
    "name:nb": "Kairo",
    "name:nds": "Kairo",
    "name:ne": "कायरो",
    "name:new": "कायरो",
    "name:nl": "Caïro",
    "name:nn": "Kairo",
    "name:no": "Kairo",
    "name:nv": "Yadaazʼáhíłání",
    "name:ny": "Cairo",
    "name:oc": "Lo Caire",
    "name:os": "Каир",
    "name:pa": "ਕਾਹਿਰਾ",
    "name:pap": "Kairo",
    "name:pl": "Kair",
    "name:pms": "Ël Càiro",
    "name:pnb": "قاہرہ",
    "name:pnt": "Κάιρον",
    "name:ps": "قاهره",
    "name:pt": "Cairo",
    "name:qu": "Qahira",
    "name:rm": "Cairo",
    "name:ro": "Cairo",
    "name:roa-rup": "Cairo",
    "name:roa-tara": "'U Cairo",
    "name:ru": "Каир",
    "name:rue": "Кагіра",
    "name:sah": "Каир",
    "name:sc": "Cairo",
    "name:scn": "Cairu",
    "name:sco": "Cairo",
    "name:sd": "قاهره",
    "name:se": "Cairo",
    "name:sh": "Kairo",
    "name:si": "කයිරෝ",
    "name:simple": "Cairo",
    "name:sk": "Káhira",
    "name:sl": "Kairo",
    "name:smn": "Kairo",
    "name:sn": "Cairo",
    "name:so": "Qaahiro",
    "name:sq": "Kajro",
    "name:sr": "Каиро",
    "name:ss": "Cairo",
    "name:su": "Kairo",
    "name:sv": "Kairo",
    "name:sw": "Kairo",
    "name:szl": "Kajir",
    "name:ta": "கெய்ரோ",
    "name:te": "కైరో",
    "name:tg": "Қоҳира",
    "name:th": "ไคโร",
    "name:tk": "Kair",
    "name:tl": "Cairo",
    "name:tpi": "Kairo",
    "name:tr": "Kahire",
    "name:tt": "Каһирә",
    "name:tw": "Kairo",
    "name:udm": "Каир",
    "name:ug": "كايرو",
    "name:uk": "Каїр",
    "name:ur": "قاہرہ",
    "name:uz": "Qohira",
    "name:vec": "El Cairo",
    "name:vep": "Kair",
    "name:vi": "Cairo",
    "name:vls": "Caïro",
    "name:vo": "Kahirä",
    "name:wa": "El Caire",
    "name:war": "Cairo",
    "name:wo": "Xayra",
    "name:wuu": "开罗",
    "name:xal": "Каир балһсн",
    "name:xmf": "კაირო",
    "name:yi": "קיירא",
    "name:yo": "Káírò",
    "name:yue": "開羅",
    "name:zea": "Caïro",
    "name:zh": "开罗",
    "name:zh-Hans": "开罗",
    "name:zh-Hant": "開羅",
    "name:zu": "Cairo",
    "note": "reverted to arabic",
    "old_name:vi": "Kê Thành",
    "place": "city",
    "population": "9120350",
    "rank": "0",
    "wikidata": "Q85",
    "wikimedia_commons": "Category:Cairo",
    "wikipedia": "ar:القاهرة"
  }
},
{
  "type": "node",
  "id": 282101348,
  "lat": 25.7308478,
  "lon": 32.6095038,
  "tags": {
    "alt_name": "شيخ عبد القرنة",
    "int_name": "Sheikh Abd el-Qurna",
    "name:de": "Al-Qurna",
    "name:en": "Sheikh Abd el-Qurna",
    "name:es": "Sheij Abd el-Qurna",
    "name:fr": "Sheikh Abd el-Qurna",
    "name:zh": "貴族墓",
    "place": "hamlet",
    "source": "survey",
    "wikidata": "Q241042",
    "wikimedia_commons": "Category:Sheikh Abd el-Qurna",
    "wikipedia": "en:Sheikh Abd el-Qurna"
  }
},
{
  "type": "node",
  "id": 282290599,
  "lat": 25.7074411,
  "lon": 32.6321229,
  "tags": {
    "alt_name": "الجزيرة الوسطى",
    "int_name": "Al-Gezira",
    "name:ar": "الجزيرة الوسطى",
    "name:en": "Al-Gezira",
    "name:fr": "Al-Gezira",
    "place": "hamlet",
    "source": "survey"
  }
},
{
  "type": "node",
  "id": 282298439,
  "lat": 25.7147184,
  "lon": 32.6248344,
  "tags": {
    "alt_name": "قرنة الجديدة",
    "int_name": "New Qurna",
    "name:ar": "قرنة الجديدة",
    "name:en": "New Qurna",
    "name:fr": "New Qurna",
    "place": "hamlet",
    "source": "survey"
  }
},
{
  "type": "node",
  "id": 295029548,
  "lat": 31.4167427,
  "lon": 31.8213657,
  "tags": {
    "alt_name:ru": "Дамьетта",
    "alt_name:uk": "Дам'єтта",
    "int_name": "Damietta",
    "name": "دمياط",
    "name:ar": "دمياط",
    "name:cop": "ⲧⲁⲙⲓⲁϯ",
    "name:de": "Damiette",
    "name:en": "Damietta",
    "name:eo": "Dumjat",
    "name:es": "Damieta",
    "name:et": "Dumyāţ",
    "name:eu": "Damietta",
    "name:fa": "دمياط",
    "name:fr": "Damiette",
    "name:he": "דמיאטה",
    "name:hi": "दमिएट्टा",
    "name:hu": "Damietta",
    "name:ko": "다미에타주",
    "name:ml": "ദുമ്യാത്ത്",
    "name:oc": "Damieta / Damiati",
    "name:pl": "Damietta",
    "name:ru": "Думьят",
    "name:sv": "Damietta",
    "name:tr": "Dimyat",
    "name:uk": "Дум'ят",
    "note": "reverted to arabic",
    "place": "city",
    "population": "267000",
    "wikidata": "Q189383",
    "wikimedia_commons": "Category:Damietta",
    "wikipedia": "en:Damietta"
  }
},
{
  "type": "node",
  "id": 296193469,
  "lat": 23.1061832,
  "lon": 35.5639423,
  "tags": {
    "name": "الشلاتين",
    "name:ar": "الشلاتين",
    "name:de": "Asch Schalatin",
    "name:en": "Ash Shalatin",
    "name:eu": "Shalatin",
    "name:fr": "Alshalateen",
    "name:it": "Shalatin",
    "name:ml": "ഷലാത്തീൻ",
    "name:ru": "Шалатейн",
    "name:sv": "Shalateen",
    "name:uk": "Шалатейн",
    "place": "city",
    "population": "6731",
    "population:date": "2006",
    "wikidata": "Q311862",
    "wikimedia_commons": "Category:Shalateen",
    "wikipedia": "en:Shalateen"
  }
},
{
  "type": "node",
  "id": 298439914,
  "lat": 30.1488541,
  "lon": 31.6295623,
  "tags": {
    "alt_name:uk": "Санрайз (Схід Сонця)",
    "name": "الشروق",
    "name:ar": "الشروق",
    "name:en": "El Shorouk",
    "name:fr": "El Shorouk",
    "name:he": "זריחה",
    "name:hr": "Aš Šuruk",
    "name:ml": "അഷ്-ഷുറൂഖ്",
    "name:uk": "аш-Шурк",
    "place": "city",
    "wikidata": "Q12188944",
    "wikimedia_commons": "Category:Shorouq city",
    "wikipedia": "en:El Shorouk"
  }
},
{
  "type": "node",
  "id": 299498464,
  "lat": 30.5853431,
  "lon": 31.5035127,
  "tags": {
    "name": "الزقازيق",
    "name:ar": "الزقازيق",
    "name:en": "Zagazig",
    "name:eo": "Zagazig",
    "name:es": "Zaqaziq",
    "name:et": "Az Zaqāzīq",
    "name:eu": "Zagazig",
    "name:fa": "زقازيق",
    "name:fr": "Zagazig",
    "name:he": "זקאזיק",
    "name:kab": "Zagazig",
    "name:ko": "자가지그",
    "name:ml": "സഗാസിഗ്",
    "name:pl": "Az Zakazik",
    "name:ru": "Эз-Заказик",
    "name:uk": "Ез-Заказік",
    "note": "reverted to arabic",
    "place": "city",
    "population": "285097",
    "wikidata": "Q140304",
    "wikimedia_commons": "Category:Zagazig",
    "wikipedia": "en:Zagazig"
  }
},
{
  "type": "node",
  "id": 299499376,
  "lat": 31.0374982,
  "lon": 30.4710625,
  "tags": {
    "alt_name": "دمنهور",
    "int_name": "Damanhur",
    "name": "دمنهور",
    "name:ar": "دمنهور",
    "name:en": "Damanhur",
    "name:et": "Damanhūr",
    "name:fa": "دمنهور",
    "name:fr": "Damanhour",
    "name:kab": "Damanhur",
    "name:ko": "다만후르",
    "name:ml": "ദമൻഹൂർ",
    "name:ru": "Даманхур",
    "name:uk": "Даманхур",
    "place": "city",
    "population": "227943",
    "wikidata": "Q328153",
    "wikimedia_commons": "Category:Damanhur",
    "wikipedia": "en:Damanhur"
  }
},
{
  "type": "node",
  "id": 299501065,
  "lat": 26.1593097,
  "lon": 32.7162855,
  "tags": {
    "capital": "4",
    "int_name": "Qena",
    "name": "قنا",
    "name:ar": "قنا",
    "name:en": "Qena",
    "name:eo": "Kina",
    "name:es": "Quena",
    "name:et": "Qinā",
    "name:fa": "قنا",
    "name:fi": "Qina",
    "name:fr": "Qena",
    "name:he": "קינא",
    "name:hi": "कीना",
    "name:hu": "Kena",
    "name:it": "Qena",
    "name:kab": "Qenna",
    "name:ko": "케나",
    "name:ml": "ഖിന",
    "name:pl": "Kina",
    "name:ru": "Кена",
    "name:uk": "Кена",
    "name:zh": "基纳/基納",
    "name:zh-Hans": "基纳",
    "name:zh-Hant": "基納",
    "place": "city",
    "population": "235362",
    "wikidata": "Q336661",
    "wikimedia_commons": "Category:Qena",
    "wikipedia": "ar:قنا (مدينة)"
  }
},
{
  "type": "node",
  "id": 299523927,
  "lat": 29.9723458,
  "lon": 30.9409205,
  "tags": {
    "alt_name": "مدينة السادس من أكتوبر",
    "alt_name:hr": "Grad šestog listopada",
    "alt_name:pl": "Miasto 6. października",
    "alt_name:uk": "Місто імені 6 жовтня",
    "int_name": "6th October City",
    "name": "السادس من أكتوبر",
    "name:ar": "السادس من أكتوبر",
    "name:de": "Sechster Oktober",
    "name:en": "6th of October",
    "name:eo": "La sesa de oktobro",
    "name:es": "Seis de Octubre",
    "name:fa": "شهر ششم اکتبر",
    "name:fr": "Six Octobre",
    "name:hr": "Madinat as Sadis min Uktubar",
    "name:ko": "10월 6일",
    "name:ml": "ഒക്ടോബർ ആറാം നഗരം",
    "name:pl": "Szósty października",
    "name:ru": "Город имени 6 октября",
    "name:sv": "Sjätte oktober-staden",
    "name:uk": "Медіна-Сіттат-Октобер",
    "place": "city",
    "population": "184000",
    "wikipedia": "en:6 October City"
  }
},
{
  "type": "node",
  "id": 299527803,
  "lat": 30.5545106,
  "lon": 31.0097923,
  "tags": {
    "name": "شبين الكوم",
    "name:ar": "شبين الكوم",
    "name:de": "Schibin Al Kaum",
    "name:en": "Shibin El Kawm",
    "name:eo": "Ŝibin al-Kaum",
    "name:es": "Shibin el-Kom",
    "name:et": "Shibīn al-Kawm",
    "name:fa": "شبين الكوم",
    "name:fr": "Shibin El Kom",
    "name:ko": "시빈엘콤",
    "name:ml": "ഷിബിൻ അൽ-കോം",
    "name:pl": "Szibin al-Kaum",
    "name:ru": "Шибин-эль-Ком",
    "name:sv": "Shibin al-Kawm",
    "name:uk": "Шибін-Ель-Ком",
    "place": "city",
    "population": "184097",
    "wikidata": "Q31350",
    "wikimedia_commons": "Category:Shebin El-Kom",
    "wikipedia": "en:Shibin El Kom"
  }
},
{
  "type": "node",
  "id": 299546351,
  "lat": 31.3528567,
  "lon": 27.2395262,
  "tags": {
    "name": "مرسى مطروح",
    "name:ar": "مرسى مطروح",
    "name:azb": "مرسی مطروح",
    "name:de": "Marsa Matruh",
    "name:en": "Marsa Matruh",
    "name:eo": "Marsa Matruh",
    "name:es": "Marsa Matruh",
    "name:et": "Marsá Maţrūḩ",
    "name:fa": "مرسی مطروح",
    "name:fr": "Marsa Matruh",
    "name:he": "מרסה מטרוח",
    "name:hi": "मरसा मातृह",
    "name:hu": "Marsza Matrúh",
    "name:ko": "마사마트루",
    "name:ks": "مرسی مطروح",
    "name:ml": "മർസ മത്രൂഹ്",
    "name:pl": "Marsa Matruh",
    "name:ru": "Мерса-Матрух",
    "name:sv": "Mersa Matruh",
    "name:uk": "Мерса-Матрух",
    "name:ur": "مرسی مطروح",
    "place": "city",
    "population": "140000",
    "wikidata": "Q393829",
    "wikipedia": "ar:مرسى مطروح"
  }
},
{
  "type": "node",
  "id": 299569009,
  "lat": 29.8928510,
  "lon": 31.2672452,
  "tags": {
    "name": "الحوامدية",
    "name:ar": "الحوامدية",
    "name:de": "al-Hawamidiyya",
    "name:en": "Al-Hawamidyah",
    "name:fr": "El Hawamdeya",
    "name:hr": "Al Havamidija",
    "place": "town",
    "population": "113000",
    "wikidata": "Q337458",
    "wikipedia": "en:El Hawamdeya"
  }
},
{
  "type": "node",
  "id": 299569447,
  "lat": 31.1282330,
  "lon": 30.6461980,
  "tags": {
    "int_name": "Desouk",
    "name": "دسوق",
    "name:ar": "دسوق",
    "name:az": "Dəsuk",
    "name:ca": "Dosoq",
    "name:en": "Dusuq",
    "name:et": "Disūq",
    "name:fa": "دسوق",
    "name:fi": "Disuk",
    "name:fr": "Dessouk",
    "name:ka": "დისუკი",
    "name:lt": "Disukas",
    "name:ml": "ദെസൂഖ്",
    "name:ru": "Дисук",
    "name:sr": "Десук",
    "name:sv": "Disuq",
    "name:uk": "Дісук",
    "name:ur": "دسوق",
    "place": "city",
    "population": "110000",
    "wikidata": "Q395863",
    "wikimedia_commons": "Category:Desouk",
    "wikipedia": "ar:دسوق"
  }
},
{
  "type": "node",
  "id": 299570446,
  "lat": 30.1788750,
  "lon": 31.2064360,
  "tags": {
    "name": "قليوب",
    "name:ar": "قليوب",
    "name:ca": "Kalyub",
    "name:cop": "Ⲕⲁⲗⲓⲱⲡⲓ",
    "name:de": "Qalyub",
    "name:el": "Καλγιούμπ",
    "name:en": "Qalyub",
    "name:fa": "قلیوب",
    "name:fr": "Kalyoub",
    "name:kk": "Кальюб",
    "name:lt": "Kaljubas",
    "name:ml": "ഖൽയൂബ്",
    "name:pl": "Kaljub",
    "name:pt": "Qalyub",
    "name:ru": "Кальюб",
    "name:sr": "Каљуб",
    "name:sv": "Qalyub",
    "name:tr": "Kalyub",
    "name:uk": "Кальюб",
    "name:ur": "قلیوب",
    "name:zh": "蓋勒尤卜",
    "place": "town",
    "population": "109000",
    "wikidata": "Q336724",
    "wikipedia": "ar:قليوب"
  }
},
{
  "type": "node",
  "id": 299571747,
  "lat": 30.7251700,
  "lon": 31.6708449,
  "tags": {
    "name": "أبو كبير",
    "name:ar": "أبو كبير",
    "name:en": "Abu Kabir",
    "name:es": "Abu Kabir",
    "name:et": "Abū Kabīr",
    "name:fa": "ابو کبیر",
    "name:fr": "Abu Kabir",
    "name:ml": "അബു കബീർ",
    "name:ru": "Абу-Кебир",
    "name:sv": "Abu Kabir",
    "name:uk": "Абу-Кебір",
    "name:ur": "ابوکبیر",
    "place": "city",
    "population": "106000",
    "wikidata": "Q335716",
    "wikipedia": "ar:أبو كبير (مدينة)",
    "wikipedia:ar": "أبو كبير (مدينة)"
  }
},
{
  "type": "node",
  "id": 299573543,
  "lat": 26.3374370,
  "lon": 31.8911758,
  "tags": {
    "name": "جرجا",
    "name:ar": "جرجا",
    "name:en": "Jirja",
    "name:fa": "جرجا",
    "name:fr": "Girja",
    "name:ml": "ഗിർഗ",
    "place": "town",
    "population": "113600",
    "wikidata": "Q749187",
    "wikimedia_commons": "Category:Girga",
    "wikipedia": "ar:جرجا"
  }
},
{
  "type": "node",
  "id": 299612108,
  "lat": 31.5516178,
  "lon": 25.1542126,
  "tags": {
    "alt_name": "السلوم",
    "int_name": "El Sellûm, Al Sellum, Al Sollum, Sellum, Sollum, Salum",
    "name": "السلوم",
    "name:ar": "السلوم",
    "name:de": "As-Sallum",
    "name:en": "As Sallum",
    "name:es": "Sollum",
    "name:fr": "Sollum",
    "name:ml": "അസ്-സല്ലൂം",
    "name:ru": "Саллум",
    "name:uk": "Соллум",
    "place": "town",
    "population": "8445",
    "population:date": "2006",
    "wikidata": "Q1245502",
    "wikimedia_commons": "Category:Sallum",
    "wikipedia": "en:Sallum"
  }
},
{
  "type": "node",
  "id": 300754111,
  "lat": 30.0719412,
  "lon": 31.0185288,
  "tags": {
    "name": "القرية الذكية",
    "name:ar": "القرية الذكية",
    "name:arz": "القرية الذكية",
    "name:de": "Smart Village",
    "name:en": "Smart Village",
    "name:fr": "Smart Village",
    "place": "village",
    "wikidata": "Q4164613",
    "wikimedia_commons": "Category:Smart Village Egypt",
    "wikipedia": "ar:القرية الذكية"
  }
},
{
  "type": "node",
  "id": 311994035,
  "lat": 30.1914000,
  "lon": 31.4505480,
  "tags": {
    "name": "العبور",
    "name:ar": "العبور",
    "name:de": "Al Ubur",
    "name:en": "Al-Obour",
    "name:es": "El Obour",
    "name:fa": "شهر عبور",
    "name:fr": "El Obour",
    "name:hr": "Al Ubur",
    "name:ml": "അൽ-ഉബൂർ",
    "name:ru": "Эль-Убур",
    "name:sv": "Obour",
    "name:uk": "Ель-Убур",
    "place": "city",
    "wikidata": "Q4120190",
    "wikimedia_commons": "Category:Obour City",
    "wikipedia": "en:Obour City"
  }
},
{
  "type": "node",
  "id": 315755236,
  "lat": 30.0449880,
  "lon": 31.2488627,
  "tags": {
    "name": "عابدين",
    "name:ar": "عابدين",
    "name:en": "Abdin",
    "name:fa": "عابدين",
    "place": "suburb",
    "wikidata": "Q6021507",
    "wikipedia": "ar:حي عابدين"
  }
},
{
  "type": "node",
  "id": 317193944,
  "lat": 30.0591855,
  "lon": 31.2341778,
  "tags": {
    "name": "بولاق",
    "name:ar": "بولاق",
    "name:en": "Boulak",
    "name:fa": "بولاق",
    "place": "suburb",
    "wikidata": "Q1003523",
    "wikimedia_commons": "Category:Boulaq",
    "wikipedia": "en:Boulaq"
  }
},
{
  "type": "node",
  "id": 322007875,
  "lat": 29.9543038,
  "lon": 31.2208503,
  "tags": {
    "name": "أبو النمرس",
    "name:ar": "أبو النمرس",
    "name:en": "Abu An Numrus",
    "name:fr": "Abu an Numros",
    "note": "correct arabic tag",
    "place": "village"
  }
},
{
  "type": "node",
  "id": 322008011,
  "lat": 29.9407683,
  "lon": 31.1901228,
  "tags": {
    "name": "شبرمنت",
    "name:ar": "شبرمنت",
    "name:en": "Shabramant",
    "name:fr": "Shabramant",
    "place": "village"
  }
},
{
  "type": "node",
  "id": 322008436,
  "lat": 29.8513253,
  "lon": 31.2744094,
  "tags": {
    "name": "البدرشين",
    "name:ar": "البدرشين",
    "name:en": "El Badrashein",
    "name:fr": "El Badrashein",
    "name:ru": "Эль-Бадрашин",
    "place": "village",
    "wikidata": "Q4165238",
    "wikimedia_commons": "Category:Badrasheen",
    "wikipedia": "en:Badrashin"
  }
},
{
  "type": "node",
  "id": 324279366,
  "lat": 30.0649721,
  "lon": 31.2195945,
  "tags": {
    "place": "suburb"
  }
},
{
  "type": "node",
  "id": 324279484,
  "lat": 30.0885120,
  "lon": 31.2159270,
  "tags": {
    "name": "إمبابة",
    "name:ar": "إمبابة",
    "name:en": "Imbaba",
    "place": "suburb"
  }
},
{
  "type": "node",
  "id": 324279974,
  "lat": 30.0388955,
  "lon": 31.2125563,
  "tags": {
    "name": "الدقى",
    "name:ar": "الدقى",
    "name:en": "Dokki",
    "place": "suburb",
    "wikidata": "Q4166076",
    "wikimedia_commons": "Category:Dokki",
    "wikipedia": "en:Dokki"
  }
},
{
  "type": "node",
  "id": 324282170,
  "lat": 30.0549435,
  "lon": 31.2127281,
  "tags": {
    "name": "العجوزة",
    "name:ar": "العجوزة",
    "name:en": "El Agouza",
    "name:fa": "عجوزه",
    "note": "correct arabic tag",
    "place": "suburb"
  }
},
{
  "type": "node",
  "id": 324282233,
  "lat": 30.0363319,
  "lon": 31.2763286,
  "tags": {
    "name": "منشية ناصر",
    "name:ar": "منشية ناصر",
    "name:en": "Manshiet Naser",
    "place": "suburb"
  }
},
{
  "type": "node",
  "id": 324282794,
  "lat": 30.0732299,
  "lon": 31.2363328,
  "tags": {
    "city": "Cairo",
    "name": "روض الفرج",
    "name:ar": "روض الفرج",
    "name:en": "Rod El-Farag",
    "place": "suburb"
  }
},
{
  "type": "node",
  "id": 324282800,
  "lat": 30.0648978,
  "lon": 31.2298942,
  "tags": {
    "name": "السبتية",
    "name:ar": "السبتية",
    "name:en": "Al-Sabtiyya",
    "place": "suburb"
  }
},
{
  "type": "node",
  "id": 324283021,
  "lat": 30.0072008,
  "lon": 31.2293660,
  "tags": {
    "name": "مصر القديمة",
    "name:ar": "مصر القديمة",
    "name:en": "Masr Al-Qadima",
    "name:fa": "مصر قدیم",
    "place": "suburb"
  }
},
{
  "type": "node",
  "id": 324283142,
  "lat": 30.0338799,
  "lon": 31.1910129,
  "tags": {
    "name": "بولاق الدكرور",
    "name:ar": "بولاق الدكرور",
    "name:en": "Bulaq Al-Dakrour",
    "place": "suburb"
  }
},
{
  "type": "node",
  "id": 324283307,
  "lat": 30.0273241,
  "lon": 31.2404117,
  "tags": {
    "name": "السيدة زينب",
    "name:ar": "السيدة زينب",
    "name:en": "Al-Sayyida Zeinab",
    "name:fa": "سیده زینب",
    "place": "suburb",
    "wikidata": "Q11009758",
    "wikimedia_commons": "Category:Sayeda Zaynab district",
    "wikipedia": "ar:حي السيدة زينب"
  }
},
{
  "type": "node",
  "id": 324283481,
  "lat": 30.0452852,
  "lon": 31.2601925,
  "tags": {
    "name": "الغورية",
    "name:ar": "الغورية",
    "name:en": "El-Ghuriyya",
    "place": "suburb"
  }
},
{
  "type": "node",
  "id": 324557596,
  "lat": 30.1770721,
  "lon": 31.2811174,
  "tags": {
    "alt_name": "بلقس",
    "name": "بلقس",
    "name:ar": "بلقس",
    "name:en": "Balaqs",
    "name:fr": "Belkeis",
    "place": "village"
  }
},
{
  "type": "node",
  "id": 324557988,
  "lat": 30.1605243,
  "lon": 31.2373436,
  "tags": {
    "name": "ميت حلفا",
    "name:ar": "ميت حلفا",
    "name:en": "Mit Halfa",
    "name:fr": "Mit Halfa",
    "place": "village",
    "wikidata": "Q3317043",
    "wikipedia": "fr:Mit Halfa"
  }
},
{
  "type": "node",
  "id": 324567000,
  "lat": 30.1457317,
  "lon": 31.2351206,
  "tags": {
    "name": "ميت نما",
    "name:ar": "ميت نما",
    "name:de": "Mit Nama",
    "name:en": "Mit Nama",
    "name:fr": "Mit Nama",
    "place": "village",
    "wikidata": "Q12246558",
    "wikimedia_commons": "Category:Mit Nama",
    "wikipedia": "ar:ميت نما"
  }
},
{
  "type": "node",
  "id": 324567643,
  "lat": 30.0163974,
  "lon": 31.1404936,
  "tags": {
    "name": "منشأة البكاري",
    "name:ar": "منشأة البكاري",
    "name:en": "Minshat Al Bekari",
    "name:fr": "Monshaat Al Bakari",
    "note": "correct arabic tag",
    "place": "village"
  }
},
{
  "type": "node",
  "id": 324567830,
  "lat": 30.0483495,
  "lon": 31.1264174,
  "tags": {
    "alt_name": "ناحية",
    "name": "ناهيا",
    "name:ar": "ناهيا",
    "name:en": "Nahia",
    "name:fr": "Nahia",
    "place": "village"
  }
},
{
  "type": "node",
  "id": 324568271,
  "lat": 30.0868270,
  "lon": 31.1858122,
  "tags": {
    "name": "بشتيل البلد",
    "name:ar": "بشتيل البلد",
    "name:en": "Bashteel Al-Balad",
    "name:fr": "Bashteil",
    "note": "correct arabic tag",
    "place": "village"
  }
},
{
  "type": "node",
  "id": 324569109,
  "lat": 30.0819253,
  "lon": 31.1180060,
  "tags": {
    "name": "كفر الحكيم",
    "name:ar": "كفر الحكيم",
    "name:en": "Kafr Hakim",
    "name:fr": "Kafr Hakim",
    "note": "correct arabic tag",
    "place": "village"
  }
},
{
  "type": "node",
  "id": 324569453,
  "lat": 30.1365730,
  "lon": 31.0747473,
  "tags": {
    "name": "منصورية",
    "name:ar": "منصورية",
    "name:en": "Mansuriya",
    "name:fr": "Mansouria",
    "place": "village"
  }
},
{
  "type": "node",
  "id": 324569652,
  "lat": 30.1683380,
  "lon": 31.0423030,
  "tags": {
    "alt_name": "برقش",
    "name": "برقش",
    "name:ar": "برقاش",
    "name:en": "Birqash",
    "name:fr": "Birqash",
    "place": "village",
    "population": "14172",
    "wikidata": "Q12197977",
    "wikimedia_commons": "Category:Birqash"
  }
},
{
  "type": "node",
  "id": 324570075,
  "lat": 30.1751552,
  "lon": 31.0499423,
  "tags": {
    "name": "نكلة",
    "name:ar": "نكلة",
    "name:en": "Nekla",
    "name:fr": "Nekla",
    "place": "village",
    "wikidata": "Q12248882",
    "wikipedia": "ar:نكلا"
  }
},
{
  "type": "node",
  "id": 324571695,
  "lat": 30.1802133,
  "lon": 31.2565364,
  "tags": {
    "name": "كوم اشفين",
    "name:ar": "كوم اشفين",
    "name:en": "Kom Eshfin",
    "name:fr": "Kom Ashfin",
    "place": "village",
    "wikidata": "Q12236541",
    "wikipedia": "ar:كوم أشفين"
  }
},
{
  "type": "node",
  "id": 324572886,
  "lat": 30.2485210,
  "lon": 31.3113825,
  "tags": {
    "name": "سندوة",
    "name:ar": "سندوة",
    "name:en": "Sindawa",
    "place": "village"
  }
},
{
  "type": "node",
  "id": 324572967,
  "lat": 30.2283474,
  "lon": 31.2634115,
  "tags": {
    "name": "نوى",
    "name:ar": "نوى",
    "name:en": "Nawa",
    "name:fr": "Nawa",
    "place": "village"
  }
},
{
  "type": "node",
  "id": 324629407,
  "lat": 29.2034664,
  "lon": 25.5192273,
  "tags": {
    "alt_name:ar": "قسم سيوة",
    "int_name": "Siwa Oasis",
    "name": "واحة سيوة",
    "name:ar": "واحة سيوة",
    "name:de": "Siwa Oasis",
    "name:en": "Siwa Oasis",
    "name:es": "Siwa",
    "name:fr": "Siwa",
    "name:hu": "Szíva-oázis",
    "name:kab": "Isiwan",
    "name:ko": "시와오아시스",
    "name:lt": "Siva",
    "name:ru": "Сива",
    "name:sv": "Siwa",
    "name:uk": "Сіва",
    "official_name:ar": "سيوة",
    "place": "city",
    "population": "35000",
    "short_name:ar": "سيوة",
    "wikidata": "Q2008735",
    "wikimedia_commons": "Category:Siwa",
    "wikipedia": "ar:سيوة"
  }
},
{
  "type": "node",
  "id": 325783225,
  "lat": 30.3125348,
  "lon": 31.3176010,
  "tags": {
    "name": "شبين القناطر",
    "name:ar": "شبين القناطر",
    "name:en": "Shebin el Qanater",
    "name:fr": "Shibin el-Qanater",
    "place": "town"
  }
},
{
  "type": "node",
  "id": 327141531,
  "lat": 27.2220156,
  "lon": 31.1498511,
  "tags": {
    "name": "بني زيد",
    "name:ar": "بني زيد",
    "name:en": "Beni Zeid",
    "name:fr": "Beni Zaid",
    "place": "village"
  }
},
{
  "type": "node",
  "id": 327143464,
  "lat": 27.2691810,
  "lon": 31.1517360,
  "tags": {
    "name": "أبنوب",
    "name:ar": "أبنوب",
    "name:en": "Abnub",
    "name:fr": "Abnub",
    "place": "town",
    "wikidata": "Q975904",
    "wikipedia": "en:Abnub"
  }
},
{
  "type": "node",
  "id": 327143668,
  "lat": 27.3375103,
  "lon": 31.0236800,
  "tags": {
    "name": "معدبة",
    "name:ar": "معدبة",
    "name:en": "Madaba",
    "place": "village"
  }
},
{
  "type": "node",
  "id": 330153838,
  "lat": 30.0639735,
  "lon": 31.2594293,
  "tags": {
    "alt_name": "الظاهر",
    "name": "الظاهر",
    "name:ar": "الظاهر",
    "name:en": "Al-Zaher",
    "place": "suburb"
  }
},
{
  "type": "node",
  "id": 330154299,
  "lat": 30.0487472,
  "lon": 31.2637754,
  "tags": {
    "alt_name": "القاهرة الإسلامية",
    "name": "القاهرة الإسلامية",
    "name:ar": "القاهرة الإسلامية",
    "name:de": "Islamisches Kairo",
    "name:en": "Islamic Cairo",
    "name:fa": "قاهره اسلامی",
    "name:ml": "ഇസ്ലാമിക് കെയ്റോ",
    "place": "suburb",
    "wikidata": "Q1100964",
    "wikimedia_commons": "Category:Islamic Cairo",
    "wikipedia": "en:Islamic Cairo"
  }
},
{
  "type": "node",
  "id": 330190833,
  "lat": 29.8320418,
  "lon": 31.3647679,
  "tags": {
    "addr:city": "مدينة 15 مايو",
    "name": "الخامس عشر من مايو",
    "name:ar": "الخامس عشر من مايو",
    "name:de": "Der fünfzehnte mai",
    "name:en": "Fifteenth Of May",
    "name:fa": "شهر پانزدهم ماه مه",
    "name:fr": "Le quinze Mai",
    "name:hi": "मई की पंद्रहवीं",
    "name:ml": "പതിനഞ്ചാം മെയ്",
    "name:ru": "Пятнадцатого Мая",
    "name:sv": "Femtondemajstaden",
    "name:uk": "П'ятнадцятого травня",
    "place": "city",
    "short_name:ar": "15 مايو",
    "wikidata": "Q4119766",
    "wikimedia_commons": "Category:15th of May (city)",
    "wikipedia": "ar:15 مايو (مدينة)"
  }
},
{
  "type": "node",
  "id": 330191267,
  "lat": 30.1428060,
  "lon": 31.7428240,
  "tags": {
    "name": "بدر",
    "name:ar": "بدر",
    "name:de": "Badr",
    "name:en": "Badr",
    "name:fa": "بدر",
    "name:fr": "Badr",
    "name:hr": "Badr",
    "name:ml": "ബദർ",
    "name:sv": "Badr",
    "name:uk": "Бадр",
    "place": "city",
    "wikidata": "Q12197650",
    "wikimedia_commons": "Category:Badr (Cairo)",
    "wikipedia": "en:Badr, Egypt"
  }
},
{
  "type": "node",
  "id": 330194927,
  "lat": 30.0483470,
  "lon": 30.9832235,
  "tags": {
    "alt_name": "مدينة الشيخ زايد",
    "name": "الشيخ زايد",
    "name:ar": "الشيخ زايد",
    "name:en": "Sheikh Zayed",
    "name:fr": "Cheikh Zayed",
    "note": "reverted to arabic",
    "place": "city",
    "population": "80000",
    "wikidata": "Q4165945",
    "wikimedia_commons": "Category:Sheikh Zayed City",
    "wikipedia": "en:Sheikh Zayed City"
  }
},
{
  "type": "node",
  "id": 330684758,
  "lat": 30.0668177,
  "lon": 31.2760789,
  "tags": {
    "name": "الوايلى",
    "name:ar": "الوايلى",
    "name:en": "El-Waily",
    "place": "suburb"
  }
},
{
  "type": "node",
  "id": 331168623,
  "lat": 29.9529555,
  "lon": 31.2395844,
  "tags": {
    "alt_name": "منيل شيحا",
    "name": "منيل شيحا",
    "name:ar": "منيل شيحا",
    "name:en": "Manial Shiha",
    "name:fr": "Manil Shiha",
    "place": "village"
  }
},
{
  "type": "node",
  "id": 331865542,
  "lat": 29.8968261,
  "lon": 31.3009298,
  "tags": {
    "name": "حدائق حلوان",
    "name:ar": "حدائق حلوان",
    "name:en": "Hadayek helwan",
    "place": "suburb"
  }
},
{
  "type": "node",
  "id": 331867801,
  "lat": 29.8827544,
  "lon": 31.3053071,
  "tags": {
    "alt_name": "وادي حوف",
    "name": "وادي حوف",
    "name:ar": "وادي حوف",
    "name:en": "Wadi Hof",
    "place": "suburb"
  }
},
{
  "type": "node",
  "id": 331876152,
  "lat": 29.7081962,
  "lon": 31.2996952,
  "tags": {
    "name": "غمازه الكبرى",
    "name:ar": "غمازه الكبرى",
    "name:en": "Ghamaza Al-Kubra",
    "name:fr": "Ghamaza Al-Kubra",
    "place": "village"
  }
},
{
  "type": "node",
  "id": 331876173,
  "lat": 29.7290678,
  "lon": 31.3034717,
  "tags": {
    "name": "قبلية",
    "name:ar": "قبلية",
    "name:en": "Qiblya",
    "name:fr": "Qiblya",
    "place": "village"
  }
},
{
  "type": "node",
  "id": 331876352,
  "lat": 29.7512770,
  "lon": 31.2408150,
  "tags": {
    "name": "دهشور",
    "name:af": "Dahsjoer",
    "name:ar": "دهشور",
    "name:ca": "Dashur",
    "name:cs": "Dáhšúr",
    "name:de": "Dahschur",
    "name:el": "Νταχσούρ",
    "name:en": "Dahshur",
    "name:eo": "Dahŝuro",
    "name:es": "Dahshur",
    "name:eu": "Dahshur",
    "name:fi": "Dahshur",
    "name:fr": "Dahchour",
    "name:gl": "Dahshur",
    "name:he": "דחשור",
    "name:hr": "Dahšur",
    "name:hu": "Dahsúr",
    "name:it": "Dahshur",
    "name:ja": "ダハシュール",
    "name:lt": "Dahšūras",
    "name:ml": "ദാഹ്ഷുർ",
    "name:my": "ဒါရှာ",
    "name:nb": "Dahshur",
    "name:nl": "Dasjoer",
    "name:pl": "Dahszur",
    "name:pt": "Dachur",
    "name:ru": "Дахшур",
    "name:sk": "Dahšúr",
    "name:sl": "Dahšur",
    "name:sv": "Dahshur",
    "name:ta": "தச்சூர் (பண்டைய நகரம்)",
    "name:th": "ดาห์ชูร์",
    "name:tr": "Dahshur",
    "name:uk": "Дахшур",
    "name:ur": "دہشور",
    "name:vi": "Dahshur",
    "name:zh": "代赫舒爾",
    "place": "village",
    "wikidata": "Q685414",
    "wikimedia_commons": "Category:Dahshur",
    "wikipedia": "en:Dahshur"
  }
},
{
  "type": "node",
  "id": 331876505,
  "lat": 29.6929830,
  "lon": 31.2480202,
  "tags": {
    "name": "برنشت",
    "name:ar": "برنشت",
    "name:en": "Berenshet",
    "name:fr": "Brenshet",
    "place": "village"
  }
},
{
  "type": "node",
  "id": 331876964,
  "lat": 29.6306352,
  "lon": 31.2349788,
  "tags": {
    "name": "تهما",
    "name:ar": "تهما",
    "name:en": "Tahma",
    "name:fr": "Tahma",
    "place": "village"
  }
},
{
  "type": "node",
  "id": 331876985,
  "lat": 29.5891453,
  "lon": 31.2378971,
  "tags": {
    "name": "بهما",
    "name:ar": "بهما",
    "name:en": "Bahma",
    "name:fr": "Bamha",
    "place": "village"
  }
},
{
  "type": "node",
  "id": 331877077,
  "lat": 29.5967581,
  "lon": 31.2890521,
  "tags": {
    "name": "الفهميين",
    "name:ar": "الفهميين",
    "name:en": "Al-Fahmyyin",
    "name:fr": "Al Fahmiyyin",
    "place": "village"
  }
},
{
  "type": "node",
  "id": 331877485,
  "lat": 29.8503350,
  "lon": 31.2282840,
  "tags": {
    "name": "سقارة",
    "name:ar": "سقارة",
    "name:cs": "Sakkára",
    "name:en": "Saqqara",
    "name:fr": "Saqqarah",
    "name:ru": "Саккара",
    "place": "village",
    "wikidata": "Q192134",
    "wikimedia_commons": "Category:Saqqara",
    "wikipedia": "en:Saqqara"
  }
},
{
  "type": "node",
  "id": 331877496,
  "lat": 29.9091281,
  "lon": 31.2912838,
  "tags": {
    "name": "المعصرة",
    "name:ar": "المعصرة",
    "name:en": "Al-Maasara",
    "place": "suburb"
  }
},
{
  "type": "node",
  "id": 331877611,
  "lat": 29.9214777,
  "lon": 31.2447635,
  "tags": {
    "name": "المنوات",
    "name:ar": "المنوات",
    "name:en": "Al-Manawat",
    "name:fr": "El Manawat",
    "place": "village",
    "wikidata": "Q12193971",
    "wikipedia": "ar:المنوات"
  }
},
{
  "type": "node",
  "id": 331877617,
  "lat": 29.9359084,
  "lon": 31.2641613,
  "tags": {
    "name": "طموه",
    "name:ar": "طموه",
    "name:en": "Tomouh",
    "name:fr": "Tamwa",
    "name:pl": "Tammuh",
    "place": "village",
    "wikidata": "Q12221876",
    "wikipedia": "en:Tummwah, Giza"
  }
},
{
  "type": "node",
  "id": 331952341,
  "lat": 30.1331347,
  "lon": 31.1668408,
  "tags": {
    "name": "سقيل",
    "name:ar": "سقيل",
    "name:en": "Saqeel",
    "name:fr": "Saqill",
    "place": "village"
  }
},
{
  "type": "node",
  "id": 331952687,
  "lat": 30.1251429,
  "lon": 31.1926195,
  "tags": {
    "name": "طناش",
    "name:ar": "طناش",
    "name:en": "Tanaash",
    "name:fr": "Tanash",
    "place": "village"
  }
},
{
  "type": "node",
  "id": 331953370,
  "lat": 29.4643452,
  "lon": 31.2718725,
  "tags": {
    "name": "القبابات",
    "name:ar": "القبابات",
    "name:en": "Al-Qobabat",
    "name:fr": "Al-Qobabat",
    "place": "village"
  }
},
{
  "type": "node",
  "id": 331953371,
  "lat": 29.4504473,
  "lon": 31.2380597,
  "tags": {
    "name": "الكداية",
    "name:ar": "الكداية",
    "name:en": "Al-Kedaya",
    "name:fr": "Al-Kedaya",
    "place": "village"
  }
},
{
  "type": "node",
  "id": 331953447,
  "lat": 29.3729622,
  "lon": 31.1713734,
  "tags": {
    "name": "ميدوم",
    "name:ar": "ميدوم",
    "name:be": "Медум",
    "name:ca": "Meidum",
    "name:de": "Meidum",
    "name:el": "Μεϊντούμ",
    "name:en": "Meidoum",
    "name:es": "Meidum",
    "name:eu": "Meidum",
    "name:fa": "می‌دوم",
    "name:fi": "Meidumin",
    "name:fr": "Meïdoum",
    "name:ga": "Meidum",
    "name:hr": "Meidum",
    "name:it": "Meidum",
    "name:lt": "Meidumas",
    "name:nl": "Meidoem",
    "name:pl": "Majdum",
    "name:pt": "Meidum",
    "name:ro": "Meidum",
    "name:ru": "Медум",
    "name:sl": "Meidum",
    "name:sv": "Meidum",
    "name:uk": "Мейдум",
    "name:vi": "Meidum",
    "name:zh": "美杜姆",
    "place": "village",
    "wikidata": "Q1066424",
    "wikimedia_commons": "Category:Meidum",
    "wikipedia": "en:Meidum"
  }
},
{
  "type": "node",
  "id": 331953478,
  "lat": 29.3206210,
  "lon": 31.1978865,
  "tags": {
    "name": "المصلوب",
    "name:ar": "المصلوب",
    "name:en": "Al-Masloub",
    "name:fr": "El Masloub",
    "place": "village"
  }
},
{
  "type": "node",
  "id": 331953512,
  "lat": 29.3030781,
  "lon": 31.1689701,
  "tags": {
    "name": "قمن العروس",
    "name:ar": "قمن العروس",
    "name:en": "Qomn Al-Arous",
    "name:fr": "Qiman al-Arus",
    "place": "village",
    "wikidata": "Q12233550",
    "wikipedia": "ar:قمن العروس"
  }
},
{
  "type": "node",
  "id": 331953573,
  "lat": 29.2511503,
  "lon": 31.0931730,
  "tags": {
    "name": "أبو صير الملق",
    "name:ar": "أبو صير الملق",
    "name:de": "Abusir el-Meleq",
    "name:en": "Abu Seer Al-Malaq",
    "name:fr": "Abu Sir Al Malq",
    "place": "village",
    "wikidata": "Q335383",
    "wikimedia_commons": "Category:Abusir el-Malek",
    "wikipedia": "en:Abusir el-Meleq"
  }
},
{
  "type": "node",
  "id": 331953850,
  "lat": 28.9214178,
  "lon": 30.9853740,
  "tags": {
    "name": "ببا",
    "name:ar": "ببا",
    "name:en": "Biba",
    "name:fr": "Biba",
    "name:ml": "ബിബ",
    "place": "town",
    "wikidata": "Q4902946",
    "wikipedia": "en:Biba, Egypt"
  }
},
{
  "type": "node",
  "id": 331953872,
  "lat": 28.8232566,
  "lon": 30.8995433,
  "tags": {
    "name": "الفشن",
    "name:ar": "الفشن",
    "name:en": "Fashn",
    "name:fa": "فشن",
    "name:fr": "Al Fashn",
    "name:ml": "അൽ-ഫഷൻ",
    "place": "town"
  }
},
{
  "type": "node",
  "id": 331953881,
  "lat": 28.6461831,
  "lon": 30.8408123,
  "tags": {
    "name": "مغاغة",
    "name:ar": "مغاغة",
    "name:en": "Maghagha",
    "name:fr": "Maghagha",
    "name:ml": "മഗാഗ",
    "place": "town"
  }
},
{
  "type": "node",
  "id": 331953907,
  "lat": 28.4962396,
  "lon": 30.8028980,
  "tags": {
    "name": "بنى مزار",
    "name:ar": "بنى مزار",
    "name:en": "Beni Mazar",
    "name:fa": "بنی مزار",
    "name:fr": "Beni Mazar",
    "name:ml": "ബെനി മസാർ",
    "place": "town",
    "population": "79553",
    "source:population": "http://www.citypopulation.de/Egypt-Cities.html",
    "wikidata": "Q951324",
    "wikipedia": "en:Beni Mazar"
  }
},
{
  "type": "node",
  "id": 331953922,
  "lat": 28.4176905,
  "lon": 30.7861579,
  "tags": {
    "name": "مطاى",
    "name:ar": "مطاى",
    "name:de": "Maṭāi",
    "name:en": "Matai",
    "name:fa": "مطای",
    "name:fr": "Matai",
    "name:ka": "მათაი",
    "name:pl": "Mataj",
    "name:ru": "Матаи",
    "name:sv": "Maţāy",
    "place": "village",
    "wikidata": "Q3498842",
    "wikipedia": "en:Matai, Egypt"
  }
},
{
  "type": "node",
  "id": 331954202,
  "lat": 28.3109569,
  "lon": 30.7103816,
  "tags": {
    "name": "سمالوط",
    "name:ar": "سمالوط",
    "name:en": "Samalut",
    "name:fr": "Samalut",
    "name:ml": "സമാലൂത്ത്",
    "place": "town"
  }
},
{
  "type": "node",
  "id": 332014482,
  "lat": 27.4390218,
  "lon": 30.8161641,
  "tags": {
    "int_name": "El Qūsīya, Al Qusiya",
    "name": "القوصية",
    "name:ar": "القوصية",
    "name:ca": "Al Qusiya",
    "name:de": "Qusija",
    "name:el": "Κουσάι",
    "name:en": "Al Qusiya",
    "name:es": "Cusae",
    "name:fa": "قوصیه",
    "name:fr": "El Qusiya",
    "name:hr": "Kis",
    "name:it": "Cusae",
    "name:ka": "ქუზეა",
    "name:pl": "Al Kusijja",
    "name:ru": "Эль Кусия",
    "name:sk": "Kes",
    "name:sv": "Al Qūşīyah",
    "place": "town",
    "wikidata": "Q310844",
    "wikimedia_commons": "Category:El-Qusiya",
    "wikipedia": "ar:القوصية"
  }
},
{
  "type": "node",
  "id": 332014748,
  "lat": 27.3114314,
  "lon": 30.9722043,
  "tags": {
    "name": "منفلوط",
    "name:ar": "منفلوط",
    "name:cs": "Manfalút",
    "name:de": "Manfalut",
    "name:en": "Manfalut",
    "name:fa": "منفلوط",
    "name:fr": "Manfalut",
    "name:he": "מנפלוט",
    "name:it": "Manfalut",
    "name:ka": "მანფალუტი",
    "name:kk": "Манфалут",
    "name:ko": "만팔루트",
    "name:mg": "Manfalūţ",
    "name:pl": "Manfalut",
    "name:ru": "Манфалут",
    "name:sv": "Manfalut",
    "name:vi": "Manfalut",
    "name:zh": "曼費盧特",
    "place": "town",
    "wikidata": "Q556095",
    "wikimedia_commons": "Category:Manfalut",
    "wikipedia": "en:Manfalut"
  }
},
{
  "type": "node",
  "id": 332015253,
  "lat": 27.3896494,
  "lon": 30.8947850,
  "tags": {
    "name": "ام القصور",
    "name:ar": "ام القصور",
    "name:en": "Um el Qusur",
    "name:fr": "Um El Qusur",
    "place": "village"
  }
},
{
  "type": "node",
  "id": 332071942,
  "lat": 27.0432988,
  "lon": 31.3196407,
  "tags": {
    "name": "أبو تيج",
    "name:ar": "أبو تيج",
    "name:en": "Abu Tig",
    "name:fr": "Aboutig",
    "place": "town",
    "wikidata": "Q3502865",
    "wikimedia_commons": "Category:Abou Teeg",
    "wikipedia": "en:Abu Tig"
  }
},
{
  "type": "node",
  "id": 332071992,
  "lat": 27.0197509,
  "lon": 31.3445316,
  "tags": {
    "name": "النخيلة",
    "name:ar": "النخيلة",
    "name:en": "El Nikhela",
    "name:fr": "El Nekhela",
    "place": "village"
  }
},
{
  "type": "node",
  "id": 332073264,
  "lat": 26.9656025,
  "lon": 31.3795505,
  "tags": {
    "name": "صدفا",
    "name:ar": "صدفا",
    "name:en": "Sidfa",
    "name:fr": "Sidfa",
    "name:ka": "სადფა",
    "name:pl": "Sidfa",
    "place": "town",
    "wikidata": "Q3652738",
    "wikipedia": "arz:صدفا (مركز)"
  }
},
{
  "type": "node",
  "id": 332073408,
  "lat": 26.9056110,
  "lon": 31.4358550,
  "tags": {
    "name": "طما",
    "name:ar": "طما",
    "name:en": "Tima",
    "name:fa": "طما",
    "name:fr": "Tima Fayum",
    "place": "town",
    "wikidata": "Q2511670",
    "wikipedia": "en:Tima, Egypt"
  }
},
{
  "type": "node",
  "id": 332073477,
  "lat": 26.9346928,
  "lon": 31.4046129,
  "tags": {
    "name": "اولاد الياس",
    "name:ar": "اولاد الياس",
    "name:en": "Awlad Ilyas",
    "name:fr": "Awlad Elias",
    "place": "village"
  }
},
{
  "type": "node",
  "id": 332073542,
  "lat": 26.7676025,
  "lon": 31.4955936,
  "tags": {
    "name": "طهطا",
    "name:ar": "طهطا",
    "name:en": "Tahta",
    "name:fr": "Tahta",
    "place": "town"
  }
},
{
  "type": "node",
  "id": 332073585,
  "lat": 26.6993785,
  "lon": 31.6039119,
  "tags": {
    "name": "المراغة",
    "name:ar": "المراغة",
    "name:en": "Maragha",
    "name:fr": "Al Maraghah",
    "place": "town"
  }
},
{
  "type": "node",
  "id": 332073659,
  "lat": 26.4761397,
  "lon": 31.8031050,
  "tags": {
    "name": "المنشاة",
    "name:ar": "المنشاة",
    "name:en": "Al-Manshah",
    "name:fa": "منشا",
    "name:fr": "Al Monshaah",
    "name:ml": "അൽ മൻഷ",
    "place": "town"
  }
},
{
  "type": "node",
  "id": 332074116,
  "lat": 26.3677984,
  "lon": 31.8450961,
  "tags": {
    "name": "البندار",
    "name:ar": "البندار",
    "name:en": "Al-Bindar",
    "name:fr": "Al-Bindar",
    "place": "village"
  }
},
{
  "type": "node",
  "id": 332074139,
  "lat": 26.2332974,
  "lon": 32.0019946,
  "tags": {
    "name": "البلينا",
    "name:ar": "البلينا",
    "name:de": "al-Balyana",
    "name:en": "Balyana",
    "name:fa": "بلينا",
    "name:fr": "El-Balyana",
    "name:ml": "ബല്യന",
    "name:sco": "El-Balyana",
    "place": "town",
    "wikidata": "Q2210877",
    "wikipedia": "ar:البلينا"
  }
},
{
  "type": "node",
  "id": 332074246,
  "lat": 26.0542345,
  "lon": 32.1649013,
  "tags": {
    "name": "فرشوط",
    "name:ar": "فرشوط",
    "name:en": "Farshut",
    "name:fr": "Farshout",
    "name:uk": "Фаршут",
    "place": "town",
    "wikidata": "Q6050110",
    "wikimedia_commons": "Category:Farshut",
    "wikipedia": "ar:فرشوط"
  }
},
{
  "type": "node",
  "id": 332074267,
  "lat": 26.0489911,
  "lon": 32.2416339,
  "tags": {
    "name": "نجع حمادي",
    "name:ar": "نجع حمادي",
    "name:en": "Nag Hammadi",
    "name:fa": "نجع حمادی",
    "name:fr": "Nag Hammadi",
    "name:ml": "നജ് ഹമാദി",
    "place": "town",
    "population": "250000",
    "wikidata": "Q270754",
    "wikimedia_commons": "Category:Nag Hammadi",
    "wikipedia": "en:Nag Hammadi"
  }
},
{
  "type": "node",
  "id": 332074431,
  "lat": 26.1190880,
  "lon": 32.4630760,
  "tags": {
    "name": "دشنا",
    "name:ar": "دشنا",
    "name:en": "Dishna",
    "name:fa": "دشنا",
    "name:fr": "Dishna",
    "name:ml": "ദിഷ്‌ന",
    "place": "town",
    "wikidata": "Q6025025",
    "wikipedia": "ar:دشنا"
  }
},
{
  "type": "node",
  "id": 332074453,
  "lat": 26.0852280,
  "lon": 32.4237666,
  "tags": {
    "name": "الوقف",
    "name:ar": "الوقف",
    "name:en": "Waqf",
    "name:fr": "El Waqf",
    "place": "village"
  }
},
{
  "type": "node",
  "id": 332074724,
  "lat": 25.9987030,
  "lon": 32.8160130,
  "tags": {
    "alt_name:ml": "കോപ്റ്റോസ്",
    "name": "قفـط",
    "name:ar": "قفـط",
    "name:ca": "Coptos",
    "name:de": "Koptos",
    "name:en": "Qift",
    "name:es": "Coptos",
    "name:eu": "Koptos",
    "name:fa": "قفط",
    "name:fi": "Koptos",
    "name:fr": "Coptos",
    "name:id": "Qift",
    "name:it": "Copto",
    "name:ml": "ഖിഫ്ത്",
    "name:nb": "Qift",
    "name:nl": "Koptos",
    "name:pl": "Kift",
    "name:pt": "Copto",
    "name:ru": "Коптос",
    "name:sl": "Qift",
    "name:sv": "Koptos",
    "name:uk": "Коптос",
    "name:ur": "قفط",
    "name:vi": "Coptos",
    "place": "town",
    "population": "22063",
    "wikidata": "Q935454",
    "wikimedia_commons": "Category:Qift",
    "wikipedia": "ar:قفط"
  }
},
{
  "type": "node",
  "id": 332074802,
  "lat": 25.9156660,
  "lon": 32.7629690,
  "tags": {
    "name": "قوص",
    "name:ar": "قوص",
    "name:ca": "Kus",
    "name:de": "Qus (Stadt)",
    "name:el": "Κους",
    "name:en": "Qus",
    "name:es": "Apolinópolis Parva",
    "name:fa": "شهرستان قوص",
    "name:fr": "Qûs",
    "name:it": "Qus",
    "name:ml": "ഖൂസ്",
    "name:pl": "Kus",
    "name:ru": "Кус (Египет)",
    "name:sv": "Kousa (ort)",
    "name:uk": "Кус (Єгипет)",
    "name:zh": "古斯 (基納省)",
    "place": "town",
    "population": "60068",
    "wikidata": "Q1816589",
    "wikimedia_commons": "Category:Qus",
    "wikipedia": "ar:قوص"
  }
},
{
  "type": "node",
  "id": 332074994,
  "lat": 25.2936689,
  "lon": 32.5531993,
  "tags": {
    "name": "إسنا",
    "name:ar": "إسنا",
    "name:az": "Esna",
    "name:be": "Існа (Егіпет)",
    "name:bg": "Есна",
    "name:ca": "Esna",
    "name:cs": "Esna",
    "name:de": "Esna",
    "name:el": "Έσνα",
    "name:en": "Esna",
    "name:es": "Esna",
    "name:eu": "Esna",
    "name:fa": "اسنا",
    "name:fr": "Esna",
    "name:he": "איסנא",
    "name:hu": "Eszna",
    "name:hy": "Իսնա",
    "name:it": "Esna",
    "name:ja": "エスナ",
    "name:ka": "ისნა",
    "name:kk": "Эсна қаласы",
    "name:ko": "에스나",
    "name:la": "Latopolis",
    "name:lt": "Esna",
    "name:mk": "Есна",
    "name:ml": "ഇസ്ന",
    "name:nl": "Esna",
    "name:pl": "Esna",
    "name:pt": "Latópolis",
    "name:ru": "Исна",
    "name:sl": "Esna",
    "name:sv": "Esna",
    "name:tr": "Esna",
    "name:uk": "Есна",
    "name:ur": "اسنا",
    "name:zh": "伊斯納",
    "place": "town",
    "wikidata": "Q626031",
    "wikimedia_commons": "Category:Esna",
    "wikipedia": "ar:إسنا"
  }
},
{
  "type": "node",
  "id": 332075185,
  "lat": 24.4762478,
  "lon": 32.9495225,
  "tags": {
    "int_name": "Kom Ombo",
    "name": "كوم أمبو",
    "name:ar": "كوم أمبو",
    "name:de": "Kawm Ombo",
    "name:en": "Kawm Ombo",
    "name:fa": "کوم امبو",
    "name:fr": "Kôm Ombo",
    "name:it": "Kom Ombo",
    "name:ks": "کوم امبو",
    "name:ml": "കോം ഒംബോ",
    "name:pt": "Com Ombo",
    "name:ru": "Ком Омбо",
    "name:ur": "کوم امبو",
    "place": "town",
    "wikidata": "Q138833",
    "wikimedia_commons": "Category:Kom Ombo",
    "wikipedia": "ar:كوم أمبو"
  }
},
{
  "type": "node",
  "id": 332075242,
  "lat": 24.4079940,
  "lon": 32.9246740,
  "tags": {
    "name": "دراو",
    "name:ar": "دراو",
    "name:en": "Daraw",
    "name:fr": "Daraw",
    "name:ml": "ദറാവ്",
    "place": "town",
    "population": "38400",
    "wikidata": "Q6000830",
    "wikimedia_commons": "Category:Daraw",
    "wikipedia": "ar:دراو"
  }
},
{
  "type": "node",
  "id": 332108921,
  "lat": 31.0875714,
  "lon": 31.5949593,
  "tags": {
    "int_name": "Dekernes",
    "name": "دكرنس",
    "name:ar": "دكرنس",
    "name:en": "Dikirnis",
    "name:fr": "Dikirnis",
    "name:ml": "ദിക്കിർനിസ്",
    "name:ru": "Дикирнис",
    "place": "town",
    "population": "137542"
  }
},
{
  "type": "node",
  "id": 332185846,
  "lat": 24.7342471,
  "lon": 32.9436609,
  "tags": {
    "name": "سلوى بحرى",
    "name:ar": "سلوى بحرى",
    "name:en": "Silwa North",
    "name:fr": "Silwa du Nord",
    "place": "village",
    "wikidata": "Q22936441",
    "wikipedia": "en:Silwa Bahari"
  }
},
{
  "type": "node",
  "id": 332186090,
  "lat": 24.6144485,
  "lon": 32.9038355,
  "tags": {
    "name": "فارس",
    "name:ar": "فارس",
    "name:en": "Faris",
    "name:fr": "Faris",
    "name:ml": "ഫാറിസ്",
    "name:uk": "Фаріс",
    "place": "town"
  }
},
{
  "type": "node",
  "id": 332186156,
  "lat": 24.5705872,
  "lon": 32.9481241,
  "tags": {
    "name": "دابود",
    "name:ar": "دابود",
    "name:en": "Dabud",
    "name:fr": "Dabud",
    "place": "village"
  }
},
{
  "type": "node",
  "id": 332186632,
  "lat": 24.4814126,
  "lon": 32.8858110,
  "tags": {
    "name": "منيحة",
    "name:ar": "منيحة",
    "name:en": "Maniha",
    "name:fr": "Mniha",
    "place": "village"
  }
},
{
  "type": "node",
  "id": 332186978,
  "lat": 24.5279599,
  "lon": 32.9009172,
  "tags": {
    "name": "أقليت",
    "name:ar": "أقليت",
    "name:en": "Iqlit",
    "name:fr": "Iqlit",
    "place": "village"
  }
},
{
  "type": "node",
  "id": 332188345,
  "lat": 23.9770041,
  "lon": 32.8471443,
  "tags": {
    "name": "مدينة صحارى",
    "name:ar": "مدينة صحارى",
    "name:de": "Sahara City",
    "name:en": "Sahara City",
    "name:fr": "Sahary",
    "place": "village",
    "source": "DuMont Reise-Taschenbuch Ägypten - Die klassische Nilreise"
  }
},
{
  "type": "node",
  "id": 332214079,
  "lat": 30.3354724,
  "lon": 31.2743853,
  "tags": {
    "name": "الدير الطيبه",
    "name:ar": "الدير الطيبه",
    "name:en": "Deir",
    "name:fr": "Deir",
    "place": "village"
  }
},
{
  "type": "node",
  "id": 332219151,
  "lat": 30.3609392,
  "lon": 31.3800534,
  "tags": {
    "name": "مشتول السوق",
    "name:ar": "مشتول السوق",
    "name:en": "Mashtul Al-Suq",
    "name:fr": "Mashtoul El Souk",
    "name:ml": "മഷ്തൂൽ അൽ-സുഖ്",
    "place": "town"
  }
},
{
  "type": "node",
  "id": 332219329,
  "lat": 30.3246414,
  "lon": 31.3603229,
  "tags": {
    "name": "منشاه الكرام",
    "name:ar": "منشاه الكرام",
    "name:en": "Mansha'at Al-Karaam",
    "name:fr": "Monshat El Keram",
    "place": "village",
    "wikidata": "Q12245382",
    "wikipedia": "ar:منشأة الكرام"
  }
},
{
  "type": "node",
  "id": 332219487,
  "lat": 30.3930744,
  "lon": 31.3699360,
  "tags": {
    "name": "كفر ابراش",
    "name:ar": "كفر ابراش",
    "name:en": "Kafr Ibrash",
    "name:fr": "Kafr Ibrash",
    "place": "village",
    "wikidata": "Q12235005",
    "wikipedia": "ar:كفر أبراش"
  }
},
{
  "type": "node",
  "id": 332219582,
  "lat": 30.3776740,
  "lon": 31.4557670,
  "tags": {
    "name": "انشاص",
    "name:ar": "انشاص",
    "name:en": "Anshas",
    "name:fr": "Centrale nucléaire d'Anshas",
    "place": "village",
    "wikidata": "Q2944585",
    "wikimedia_commons": "Category:Inchas",
    "wikipedia": "en:Inshas"
  }
},
{
  "type": "node",
  "id": 332219628,
  "lat": 30.3520498,
  "lon": 31.4363689,
  "tags": {
    "name": "الزوامل",
    "name:ar": "الزوامل",
    "name:en": "Al-Zawamel",
    "name:fr": "Al-Zawamel",
    "place": "village"
  }
},
{
  "type": "node",
  "id": 332219676,
  "lat": 30.3544203,
  "lon": 31.4075298,
  "tags": {
    "name": "الغفارية",
    "name:ar": "الغفارية",
    "name:en": "Al-Ghafaria",
    "name:fr": "Al-Ghafaria",
    "place": "village"
  }
},
{
  "type": "node",
  "id": 332219750,
  "lat": 30.3699723,
  "lon": 31.4238377,
  "tags": {
    "name": "سلمنت",
    "name:ar": "سلمنت",
    "name:en": "Salamant",
    "name:fr": "Salamant",
    "place": "village"
  }
},
{
  "type": "node",
  "id": 332219806,
  "lat": 30.3154541,
  "lon": 31.3960285,
  "tags": {
    "name": "المنير",
    "name:ar": "المنير",
    "name:en": "Al-Munir",
    "name:fr": "El Moneir",
    "place": "village"
  }
},
{
  "type": "node",
  "id": 332221539,
  "lat": 30.3844859,
  "lon": 31.2588711,
  "tags": {
    "name": "Mit Kenana",
    "name:ar": "ميت كنانه",
    "place": "village"
  }
},
{
  "type": "node",
  "id": 332221725,
  "lat": 30.2431119,
  "lon": 31.2458249,
  "tags": {
    "name": "طنان",
    "name:ar": "طنان",
    "name:en": "Tanan",
    "place": "village"
  }
},
{
  "type": "node",
  "id": 332221726,
  "lat": 30.2465227,
  "lon": 31.2070294,
  "tags": {
    "name": "سنديون",
    "name:ar": "سنديون",
    "name:en": "Sindiyun",
    "place": "village"
  }
},
{
  "type": "node",
  "id": 332350372,
  "lat": 30.2492546,
  "lon": 31.3531244,
  "tags": {
    "name": "ابو زعبل البلد",
    "name:ar": "ابو زعبل البلد",
    "name:en": "Abu Zaabal A-Balad",
    "name:fr": "Abu Zaabal al Balad",
    "place": "village"
  }
},
{
  "type": "node",
  "id": 332351027,
  "lat": 30.4330739,
  "lon": 31.4377613,
  "tags": {
    "name": "البلاشون",
    "name:ar": "ميت حبيب",
    "name:en": "Mit Habib",
    "name:fr": "Mit Habib",
    "place": "village"
  }
},
{
  "type": "node",
  "id": 332355915,
  "lat": 30.4039806,
  "lon": 31.4075022,
  "tags": {
    "name": "دهمشا",
    "name:ar": "دهمشا",
    "name:en": "Dahmasha",
    "name:fr": "Dahmasha",
    "place": "village"
  }
},
{
  "type": "node",
  "id": 332356260,
  "lat": 30.4071637,
  "lon": 31.4436368,
  "tags": {
    "name": "كفر حفنا",
    "name:ar": "كفر حفنا",
    "name:en": "Kafr Hefna",
    "name:fr": "Kafr Hefna",
    "place": "hamlet"
  }
},
{
  "type": "node",
  "id": 332356580,
  "lat": 30.4083482,
  "lon": 31.3747149,
  "tags": {
    "name": "ابراش",
    "name:ar": "ابراش",
    "name:en": "Abrash",
    "name:fr": "Abrash",
    "place": "hamlet"
  }
},
{
  "type": "node",
  "id": 332356609,
  "lat": 30.4135328,
  "lon": 31.3902560,
  "tags": {
    "name": "كفر دهمشا",
    "name:ar": "كفر دهمشا",
    "name:en": "Kafr Dahamsha",
    "name:fr": "Kafr Dahamsha",
    "place": "hamlet"
  }
},
{
  "type": "node",
  "id": 332356670,
  "lat": 30.3830320,
  "lon": 31.3862219,
  "tags": {
    "name": "Minyat Salamant",
    "place": "hamlet"
  }
},
{
  "type": "node",
  "id": 332356832,
  "lat": 30.3337759,
  "lon": 31.4007234,
  "tags": {
    "name": "الصحافة",
    "name:ar": "الصحافة",
    "name:en": "Al-Sahafa",
    "name:fr": "Al-Sahafa",
    "place": "village"
  }
},
{
  "type": "node",
  "id": 332357904,
  "lat": 30.2795391,
  "lon": 31.2961856,
  "tags": {
    "name": "طحا نوب",
    "name:ar": "طحا نوب",
    "name:en": "Taha Noub",
    "name:fr": "Taha Nob",
    "place": "village"
  }
},
{
  "type": "node",
  "id": 332357947,
  "lat": 30.2689330,
  "lon": 31.2994901,
  "tags": {
    "name": "كفر طحا",
    "name:ar": "كفر طحا",
    "name:en": "Kafr Tahha",
    "name:fr": "Kafr Taha",
    "place": "village",
    "wikidata": "Q12235475",
    "wikipedia": "ar:كفر طحا"
  }
},
{
  "type": "node",
  "id": 332495265,
  "lat": 30.2334124,
  "lon": 31.1509904,
  "tags": {
    "name": "البرادعة",
    "name:ar": "البرادعة",
    "name:en": "Al-Baradaa",
    "name:fr": "Al-Baradaa",
    "place": "village"
  }
},
{
  "type": "node",
  "id": 332495312,
  "lat": 30.2445352,
  "lon": 31.1231813,
  "tags": {
    "name": "المنيرة",
    "name:ar": "المنيرة",
    "name:en": "Al-Munira",
    "name:fr": "El Munira",
    "place": "village"
  }
},
{
  "type": "node",
  "id": 332495459,
  "lat": 30.2992410,
  "lon": 31.1491022,
  "tags": {
    "name": "أجهور الكبرى",
    "name:ar": "أجهور الكبرى",
    "name:en": "Aghour Al-Kubra",
    "name:fr": "Aghour Al-Kubra",
    "place": "town",
    "wikidata": "Q12178383",
    "wikipedia": "ar:أجهور الكبرى"
  }
},
{
  "type": "node",
  "id": 332495486,
  "lat": 30.2679631,
  "lon": 31.1412057,
  "tags": {
    "name": "أجهور الصغرى",
    "name:ar": "أجهور الصغرى",
    "name:en": "Aghour Al-Sughra",
    "name:fr": "Aghour as Sughra",
    "place": "village"
  }
},
{
  "type": "node",
  "id": 332495630,
  "lat": 30.2780443,
  "lon": 31.1611185,
  "tags": {
    "name": "قرنفيل",
    "name:ar": "قرنفيل",
    "name:en": "Oronfeel",
    "name:fr": "Qaranfil",
    "place": "village",
    "wikidata": "Q12232525",
    "wikipedia": "ar:قرنفيل"
  }
},
{
  "type": "node",
  "id": 332495763,
  "lat": 30.2961285,
  "lon": 31.3047987,
  "tags": {
    "name": "كفرشبين",
    "name:ar": "كفرشبين",
    "name:en": "Kafr Shebin",
    "name:fr": "Kafr Shebin",
    "place": "village"
  }
},
{
  "type": "node",
  "id": 332495799,
  "lat": 30.2866421,
  "lon": 31.3168067,
  "tags": {
    "name": "المريج",
    "name:ar": "المريج",
    "name:en": "Al-Mareeg",
    "name:fr": "El Marig",
    "place": "village"
  }
},
{
  "type": "node",
  "id": 332504177,
  "lat": 31.3203016,
  "lon": 30.0641979,
  "tags": {
    "name": "أبو قير",
    "name:ar": "أبو قير",
    "name:bg": "Абу Кир",
    "name:ca": "Abukir",
    "name:cs": "Abúkir",
    "name:da": "Abukir",
    "name:de": "Abukir",
    "name:en": "Abu Qir",
    "name:es": "Abukir",
    "name:et": "Abū Qīr",
    "name:eu": "Abukir",
    "name:fa": "ابوقیر",
    "name:fi": "Abu Qir",
    "name:fr": "Aboukir",
    "name:it": "Abukir",
    "name:lt": "Abu Kiras",
    "name:ml": "അബൂക്കീർ",
    "name:mr": "अबु किर",
    "name:nb": "Abukir",
    "name:nn": "Abukir",
    "name:oc": "Abokir",
    "name:pl": "Abu Kir",
    "name:pt": "Abuquir",
    "name:ro": "Abukir",
    "name:ru": "Абу-Кир",
    "name:sk": "Abú Kír",
    "name:sv": "Abukir",
    "name:uk": "Абу-Кір",
    "name:zh": "阿布基爾",
    "place": "town",
    "population": "37997",
    "wikidata": "Q139773",
    "wikimedia_commons": "Category:Abu Qir",
    "wikipedia": "en:Abu Qir"
  }
},
{
  "type": "node",
  "id": 332566835,
  "lat": 29.3635717,
  "lon": 30.9041808,
  "tags": {
    "name": "مطر طارس",
    "name:ar": "مطر طارس",
    "name:en": "Matir Faris",
    "name:fr": "Matar Taris",
    "place": "town"
  }
},
{
  "type": "node",
  "id": 332567624,
  "lat": 29.2095096,
  "lon": 30.9795402,
  "tags": {
    "alt_name": "لهون",
    "name": "اللاهون",
    "name:ar": "اللاهون",
    "name:en": "Lahun",
    "name:fr": "Lahun",
    "place": "village",
    "wikidata": "Q56924",
    "wikimedia_commons": "Category:El-Lahun",
    "wikipedia": "en:El Lahun"
  }
},
{
  "type": "node",
  "id": 332568139,
  "lat": 29.3484602,
  "lon": 30.8696769,
  "tags": {
    "place": "village"
  }
},
{
  "type": "node",
  "id": 332568243,
  "lat": 29.3530986,
  "lon": 30.9699272,
  "tags": {
    "name": "Seila",
    "name:ar": "سيلا",
    "place": "village"
  }
},
{
  "type": "node",
  "id": 332568455,
  "lat": 29.4136604,
  "lon": 30.8680479,
  "tags": {
    "name": "سنورس",
    "name:ar": "سنورس",
    "name:de": "Sinnuris",
    "name:en": "Sinnuris",
    "name:fr": "Sinnuris",
    "name:hr": "Sinuris",
    "place": "town",
    "wikidata": "Q5998871",
    "wikipedia": "en:Sinnuris"
  }
},
{
  "type": "node",
  "id": 332568521,
  "lat": 29.3388835,
  "lon": 30.7208465,
  "tags": {
    "name": "العجميين",
    "name:ar": "العجميين",
    "name:en": "Al-Agamyeen",
    "name:fr": "Al Ajamiyyin",
    "place": "village"
  }
},
{
  "type": "node",
  "id": 332568628,
  "lat": 29.3619260,
  "lon": 30.7548354,
  "tags": {
    "name": "سنرو القبليه",
    "name:ar": "سنرو القبليه",
    "name:en": "Sinru Al-Qebleya",
    "name:fr": "Sinro El Qeblia",
    "place": "village",
    "wikidata": "Q12217971",
    "wikipedia": "ar:سنرو القبلية"
  }
},
{
  "type": "node",
  "id": 332568683,
  "lat": 29.3717655,
  "lon": 30.6551876,
  "tags": {
    "name": "ابوجنشو",
    "name:ar": "ابوجنشو",
    "name:en": "Abu Genshu",
    "name:fr": "Abu Junshu",
    "place": "village"
  }
},
{
  "type": "node",
  "id": 332568700,
  "lat": 29.3854120,
  "lon": 30.7064269,
  "tags": {
    "name": "ابوكساح",
    "name:ar": "ابوكساح",
    "name:en": "Abu Ksah",
    "name:fr": "Abu Ksah",
    "place": "village"
  }
},
{
  "type": "node",
  "id": 332568764,
  "lat": 29.4081458,
  "lon": 30.4109966,
  "tags": {
    "alt_name": "قارون",
    "name": "قارون",
    "name:ar": "قارون",
    "name:en": "Qarun",
    "name:fr": "Qarun",
    "place": "village"
  }
},
{
  "type": "node",
  "id": 332569112,
  "lat": 29.3740436,
  "lon": 30.6078933,
  "tags": {
    "name": "الشواشنه",
    "name:ar": "الشواشنه",
    "name:en": "Al-Shawashna",
    "name:fr": "Ash Shawashnah",
    "place": "village"
  }
},
{
  "type": "node",
  "id": 332569154,
  "lat": 29.3936383,
  "lon": 30.5265258,
  "tags": {
    "name": "الصبيحي",
    "name:ar": "الصبيحي",
    "name:en": "Al-Sebehy",
    "name:fr": "As Subayhi",
    "place": "village"
  }
},
{
  "type": "node",
  "id": 332569461,
  "lat": 29.4222008,
  "lon": 30.9268401,
  "tags": {
    "name": "Zirbi",
    "place": "village"
  }
},
{
  "type": "node",
  "id": 332569462,
  "lat": 29.3991720,
  "lon": 30.9652923,
  "tags": {
    "name": "Sirsina",
    "place": "village"
  }
},
{
  "type": "node",
  "id": 332569650,
  "lat": 29.2405098,
  "lon": 30.8002018,
  "tags": {
    "name": "أطسا",
    "name:ar": "أطسا",
    "name:de": "Itsa",
    "name:en": "Itsa",
    "name:fr": "Atsa",
    "name:hr": "Itsa",
    "place": "town",
    "wikidata": "Q6044316",
    "wikipedia": "en:Itsa"
  }
},
{
  "type": "node",
  "id": 332569959,
  "lat": 29.2734714,
  "lon": 30.8131933,
  "tags": {
    "name": "البرمكي",
    "name:ar": "البرمكي",
    "name:en": "Al-Baramky",
    "name:fr": "Al-Baramky",
    "place": "village"
  }
},
{
  "type": "node",
  "id": 332570181,
  "lat": 29.2947291,
  "lon": 30.7677101,
  "tags": {
    "name": "دسية",
    "name:ar": "دسية",
    "name:en": "Desya",
    "place": "village"
  }
},
{
  "type": "node",
  "id": 332570430,
  "lat": 29.2785624,
  "lon": 30.7330360,
  "tags": {
    "name": "عتامنة المزارعه",
    "name:ar": "عتامنة المزارعه",
    "name:en": "Atamet Al-Mozaraa",
    "name:fr": "Atamet Al-Mozaraa",
    "place": "village"
  }
},
{
  "type": "node",
  "id": 332570798,
  "lat": 29.1618516,
  "lon": 30.8420394,
  "tags": {
    "alt_name": "قلمشاه",
    "name": "قلمشاة",
    "name:ar": "قلمشاة",
    "name:en": "Qalamshah",
    "name:fr": "Qelamshah",
    "place": "village",
    "wikidata": "Q12233485",
    "wikipedia": "ar:قلمشاة"
  }
},
{
  "type": "node",
  "id": 332571014,
  "lat": 29.1357683,
  "lon": 30.6930389,
  "tags": {
    "name": "الغرق",
    "name:ar": "الغرق",
    "name:en": "Al-Gharaq",
    "name:es": "El Gharaq",
    "name:fr": "Al-Gharaq",
    "place": "town"
  }
},
{
  "type": "node",
  "id": 336211787,
  "lat": 30.5119266,
  "lon": 31.3465379,
  "tags": {
    "name": "منيا القمح",
    "name:ar": "منيا القمح",
    "name:en": "Minya Al-Qamh",
    "name:fr": "Minya El Qamh",
    "name:ml": "മിന്യ അൽ-ഖമഹ്",
    "place": "town",
    "wikidata": "Q6024576",
    "wikipedia": "en:Minya al-Qamh"
  }
},
{
  "type": "node",
  "id": 336212989,
  "lat": 30.9542879,
  "lon": 32.7457497,
  "tags": {
    "name": "بئر قطية",
    "name:ar": "بئر قطية",
    "name:en": "Qatia Well",
    "name:fr": "Un Puit Qatia",
    "place": "village"
  }
},
{
  "type": "node",
  "id": 336214286,
  "lat": 31.0181380,
  "lon": 33.0116944,
  "tags": {
    "name": "بئر العبد",
    "name:ar": "بئر العبد",
    "name:en": "Bir al Abd",
    "name:fa": "بئر العبد",
    "name:fr": "Un Puit Trimer",
    "name:he": "עֶבֶדבאר",
    "place": "town",
    "population": "87219",
    "population:date": "2015",
    "source:population": "https://en.wikipedia.org/wiki/Bir_al-Abd",
    "wikidata": "Q5605018",
    "wikimedia_commons": "Category:Bir al-Abd",
    "wikipedia": "ar:بئر العبد",
    "wikipedia:en": "Bir al-Abd"
  }
},
{
  "type": "node",
  "id": 336215777,
  "lat": 25.4522583,
  "lon": 30.5416007,
  "tags": {
    "capital": "4",
    "name": "الواحات الخارجة",
    "name:ar": "الواحات الخارجة",
    "name:de": "Oase Al Charga",
    "name:en": "Al Kharja Oases",
    "name:eo": "Ĥarga Oazo",
    "name:es": "Jariyá Oasis",
    "name:fi": "Kharga Keidas",
    "name:fr": "Oasis d'Al-Kharga",
    "name:hu": "Kharga Oázis",
    "name:ko": "카르가",
    "name:pl": "Oaza Charga",
    "name:ru": "Аль Харга",
    "name:sv": "Kharga",
    "name:uk": "Аль Харга",
    "name:ur": "خارجہ نخلستان",
    "place": "city",
    "population": "61500",
    "wikidata": "Q428570",
    "wikimedia_commons": "Category:Kharga Oasis",
    "wikipedia": "ar:الخارجة (مدينة)"
  }
},
{
  "type": "node",
  "id": 336216909,
  "lat": 25.4894682,
  "lon": 28.9865889,
  "tags": {
    "name": "موط",
    "name:ar": "موط",
    "name:en": "Mut",
    "name:fr": "Mout",
    "name:ru": "Мут",
    "place": "town",
    "population": "19616",
    "wikidata": "Q14215956",
    "wikimedia_commons": "Category:Mut, el-Dakhla",
    "wikipedia": "ar:موط (مدينة)"
  }
},
{
  "type": "node",
  "id": 336220315,
  "lat": 24.6736920,
  "lon": 30.6051180,
  "tags": {
    "name": "باريس",
    "name:ar": "باريس",
    "name:en": "Baris",
    "name:fr": "Baris",
    "place": "town",
    "wikidata": "Q4843907",
    "wikimedia_commons": "Category:Baris, el-Kharga",
    "wikipedia": "ar:باريس (مصر)"
  }
},
{
  "type": "node",
  "id": 336335743,
  "lat": 28.3518200,
  "lon": 28.8629920,
  "tags": {
    "name": "الباويطى",
    "name:ar": "الباويطى",
    "name:de": "al-Bawiti",
    "name:el": "Μπαουίτι",
    "name:en": "Bawiti",
    "name:fa": "الباویطی",
    "name:fr": "Bawiti",
    "name:ja": "バウーティー",
    "name:nl": "Al-Bawiti",
    "name:pl": "Al-Bawiti",
    "name:sv": "Al Bawīţī",
    "place": "town",
    "wikidata": "Q4116186",
    "wikimedia_commons": "Category:El-Bawiti",
    "wikipedia": "ar:الباويطي"
  }
},
{
  "type": "node",
  "id": 336345411,
  "lat": 27.0634149,
  "lon": 27.8761115,
  "tags": {
    "name": "اللواء صبيح",
    "name:ar": "اللواء صبيح",
    "name:en": "Al-Lewa Sobeih",
    "name:fr": "Al-Lewa Sobeih",
    "place": "village"
  }
},
{
  "type": "node",
  "id": 336355231,
  "lat": 26.5062220,
  "lon": 27.6620080,
  "tags": {
    "name": "أبو منقار",
    "name:ar": "أبو منقار",
    "name:de": "Abu Minqar",
    "name:en": "Abu Minqar",
    "name:fr": "Abu Minqar",
    "place": "town",
    "wikidata": "Q4843875",
    "wikimedia_commons": "Category:Abu Minqar",
    "wikipedia": "ar:قصر أبو منقار"
  }
},
{
  "type": "node",
  "id": 355923104,
  "lat": 30.0916925,
  "lon": 31.6238026,
  "tags": {
    "name": "مدينتي",
    "name:ar": "مدينتي",
    "name:arz": "مدينتى",
    "name:azb": "مدینتی",
    "name:de": "Madinati",
    "name:en": "Madinaty",
    "name:es": "Madinati",
    "name:fa": "مدینتی",
    "name:fr": "Madinaty",
    "name:he": "מדינאטי",
    "name:hr": "Madinati",
    "name:kab": "مدينتى",
    "name:ks": "مدینتی",
    "name:lt": "Madinatis",
    "name:lv": "Madinati",
    "name:ml": "മദീനത്തി",
    "name:uk": "Мадінаті",
    "name:ur": "مدینتی",
    "place": "city",
    "website": "http://www.madinaty.com/ar/",
    "wikidata": "Q6727794",
    "wikimedia_commons": "Category:Madinaty",
    "wikipedia": "ar:مدينتي"
  }
},
{
  "type": "node",
  "id": 366492497,
  "lat": 30.0729087,
  "lon": 31.2138138,
  "tags": {
    "name": "كيت كات",
    "name:ar": "كيت كات",
    "name:en": "Kit Kat",
    "place": "suburb"
  }
},
{
  "type": "node",
  "id": 376304399,
  "lat": 31.2466230,
  "lon": 32.3200710,
  "tags": {
    "addr:city": "بورفؤاد",
    "alt_name:ar": "بور فؤاد",
    "alt_name:en": "East Port Said",
    "name": "بورفؤاد",
    "name:ar": "بورفؤاد",
    "name:en": "Port Fuad",
    "name:fa": "بورفؤاد",
    "name:fr": "Port Fouad",
    "name:hi": "पोर्ट फुआद",
    "name:ml": "ഫുആദ് തുറമുഖം",
    "name:uk": "Порт-Фуад",
    "place": "town",
    "population": "70417",
    "source:population": "http://www.webcitation.org/69vqRiDpk",
    "wikidata": "Q1991268",
    "wikimedia_commons": "Category:Port Fouad",
    "wikipedia": "ar:بورفؤاد"
  }
},
{
  "type": "node",
  "id": 384265543,
  "lat": 30.0603360,
  "lon": 31.1939999,
  "tags": {
    "alt_name": "ميت عقبة",
    "name": "ميت عقبة",
    "name:ar": "ميت عقبة",
    "name:en": "Meet Oqba",
    "place": "suburb"
  }
},
{
  "type": "node",
  "id": 384273421,
  "lat": 30.0321499,
  "lon": 31.2018679,
  "tags": {
    "alt_name": "بين السرايات",
    "name": "بين السرايات",
    "name:ar": "بين السرايات",
    "name:en": "Been Al-Sarayat",
    "place": "suburb"
  }
},
{
  "type": "node",
  "id": 384309600,
  "lat": 30.0139077,
  "lon": 31.2450787,
  "tags": {
    "name": "عين الصيرة",
    "name:ar": "عين الصيرة",
    "name:en": "Ain El Sira",
    "place": "suburb"
  }
},
{
  "type": "node",
  "id": 384309606,
  "lat": 30.0712082,
  "lon": 31.2763653,
  "tags": {
    "name": "عباسية",
    "name:ar": "عباسية",
    "name:en": "Abbasseya",
    "place": "suburb"
  }
},
{
  "type": "node",
  "id": 384309610,
  "lat": 30.0634925,
  "lon": 31.2677107,
  "tags": {
    "name": "السكاكينى",
    "name:ar": "السكاكينى",
    "name:en": "El Sakakini",
    "place": "suburb"
  }
},
{
  "type": "node",
  "id": 384309613,
  "lat": 30.0801775,
  "lon": 31.2805525,
  "tags": {
    "name": "الدمرداش",
    "name:ar": "الدمرداش",
    "name:en": "El-Demerdash",
    "place": "suburb"
  }
},
{
  "type": "node",
  "id": 384309616,
  "lat": 30.0791730,
  "lon": 31.2639339,
  "tags": {
    "name": "الشرابية",
    "name:ar": "الشرابية",
    "name:en": "El-Sharrabeya",
    "place": "suburb"
  }
},
{
  "type": "node",
  "id": 384309619,
  "lat": 30.1308831,
  "lon": 31.2948719,
  "tags": {
    "name": "مسطرد",
    "name:ar": "مسطرد",
    "name:en": "Musturud",
    "place": "suburb",
    "population": "106280",
    "wikidata": "Q12242935",
    "wikimedia_commons": "Category:Musturud"
  }
},
{
  "type": "node",
  "id": 384309622,
  "lat": 30.1389642,
  "lon": 31.2655197,
  "tags": {
    "alt_name": "بهتيم",
    "name": "بهتيم",
    "name:ar": "بهتيم",
    "name:en": "Bahteem",
    "place": "suburb"
  }
},
{
  "type": "node",
  "id": 384320240,
  "lat": 30.1125623,
  "lon": 31.3342801,
  "tags": {
    "name:ar": "الحلمية",
    "name:en": "Al-Helmeya",
    "place": "suburb"
  }
},
{
  "type": "node",
  "id": 384320241,
  "lat": 30.1137865,
  "lon": 31.3334645,
  "tags": {
    "name": "حدائق الزيتون",
    "name:ar": "حدائق الزيتون",
    "name:en": "Hadayeq Al-Zaitoun",
    "note": "correct arabic tag",
    "place": "suburb"
  }
},
{
  "type": "node",
  "id": 384320242,
  "lat": 30.0998365,
  "lon": 31.3082194,
  "tags": {
    "name": "الزيتون",
    "name:ar": "الزيتون",
    "name:en": "Al-Zaitoun",
    "place": "suburb",
    "wikidata": "Q4116309",
    "wikipedia": "en:Zeitoun, Cairo"
  }
},
{
  "type": "node",
  "id": 384320947,
  "lat": 30.1304761,
  "lon": 31.3167491,
  "tags": {
    "name": "عين شمس",
    "name:ar": "عين شمس",
    "name:en": "Ain Shams",
    "place": "suburb"
  }
},
{
  "type": "node",
  "id": 394485447,
  "lat": 30.0503528,
  "lon": 31.2536950,
  "tags": {
    "alt_name": "الموسكى",
    "name": "الموسكى",
    "name:ar": "الموسكى",
    "name:en": "Al-Mosky",
    "name:fa": "موسكى",
    "place": "suburb"
  }
},
{
  "type": "node",
  "id": 394486927,
  "lat": 30.0538891,
  "lon": 31.2454725,
  "tags": {
    "alt_name": "الأزبكية",
    "name": "الأزبكية",
    "name:ar": "الأزبكية",
    "name:en": "Al-Azbakeya",
    "place": "suburb"
  }
},
{
  "type": "node",
  "id": 394487247,
  "lat": 30.0518089,
  "lon": 31.2648529,
  "tags": {
    "name": "الجمالية",
    "name:ar": "الجمالية",
    "name:en": "El-Gamaliyya",
    "name:fa": "جمالیه",
    "place": "suburb"
  }
},
{
  "type": "node",
  "id": 394488055,
  "lat": 30.0584951,
  "lon": 31.2552829,
  "tags": {
    "name": "باب الشعرية",
    "name:ar": "باب الشعرية",
    "name:en": "Bab Al-Shaaria",
    "place": "suburb"
  }
},
{
  "type": "node",
  "id": 394488468,
  "lat": 30.0421731,
  "lon": 31.2620473,
  "tags": {
    "name": "الدرب الأحمر",
    "name:ar": "الحلمية القديمة",
    "name:en": "El-Darb El-Ahmar",
    "place": "suburb"
  }
},
{
  "type": "node",
  "id": 395459213,
  "lat": 31.1594009,
  "lon": 31.9364533,
  "tags": {
    "name": "المنزلة",
    "name:ar": "المنزلة",
    "name:en": "Al Manzala",
    "name:fr": "El Manzala",
    "name:ml": "അൽ-മൻസല",
    "place": "town"
  }
},
{
  "type": "node",
  "id": 412910022,
  "lat": 31.2881187,
  "lon": 30.0327724,
  "tags": {
    "name": "المعمورة الشاطىء",
    "name:ar": "المعمورة الشاطىء",
    "name:en": "El Maamoura El Shati",
    "place": "suburb",
    "wikipedia": "en:El Maamora, Alexandria"
  }
},
{
  "type": "node",
  "id": 415538066,
  "lat": 30.0113183,
  "lon": 31.2647255,
  "tags": {
    "name": "الخليفة",
    "name:ar": "الخليفة",
    "name:en": "El-Khaleefa",
    "place": "suburb"
  }
},
{
  "type": "node",
  "id": 416090911,
  "lat": 24.2856158,
  "lon": 35.3767113,
  "tags": {
    "name": "Hamata",
    "place": "hamlet"
  }
},
{
  "type": "node",
  "id": 428339450,
  "lat": 27.8644422,
  "lon": 34.2954470,
  "tags": {
    "alt_name": "شرم الشيخ",
    "alt_name:ru": "Шарм-эль-Шейх",
    "int_name": "Sharm ash Shaykh, Sharm al Shaykh",
    "name": "شرم الشيخ",
    "name:ar": "شرم الشيخ",
    "name:ar1": "شرم الشيخ",
    "name:cs": "Šarm aš Šajch",
    "name:de": "Scharm El Scheich",
    "name:el": "Σαρμ ελ Σεΐχ",
    "name:en": "Sharm El Sheikh",
    "name:eo": "Ŝarm el Ŝeiĥ",
    "name:es": "Sharm El Sheij",
    "name:et": "Sharm El Sheikh",
    "name:fa": "شرم‌الشیخ",
    "name:fi": "Sharm El Sheikh",
    "name:fr": "Charm El Cheikh",
    "name:he": "שארם א-שייח'",
    "name:hi": "शर्म अल शेख़",
    "name:hr": "Šarm eš Šejh",
    "name:hu": "Sarm es Sejk",
    "name:hy": "Շարմ էլ Շեյխ",
    "name:kn": "ಶರ್ಮ್-ಅಲ್-ಶೈಖ್",
    "name:ko": "샤름엘셰이크",
    "name:lt": "Šarm El Šeichas",
    "name:ml": "ഷറം അൽ-ഷെയ്ഖ്",
    "name:nl": "Sharm El Sheikh",
    "name:pl": "Szarm El Szejk",
    "name:ru": "Шарм эш Шейх",
    "name:tr": "Şarm El Şeyh",
    "name:uk": "Шарм-еш-Шейх",
    "name:zh-Hans": "沙姆沙伊赫",
    "name:zh-Hant": "沙姆沙伊赫",
    "place": "city",
    "population": "38478",
    "population:date": "2006",
    "wikidata": "Q644",
    "wikimedia_commons": "Category:Sharm el-Sheikh",
    "wikipedia": "en:Sharm El Sheikh"
  }
},
{
  "type": "node",
  "id": 468085634,
  "lat": 30.5948853,
  "lon": 31.6728275,
  "tags": {
    "amenity": "fuel",
    "place": "village"
  }
},
{
  "type": "node",
  "id": 486079883,
  "lat": 27.8517577,
  "lon": 34.3046262,
  "tags": {
    "alt_name": "هضبة",
    "name": "هضبة",
    "name:ar": "هضبة",
    "name:en": "Hadaba",
    "name:ru": "Хадаба",
    "place": "suburb"
  }
},
{
  "type": "node",
  "id": 517491000,
  "lat": 28.4916646,
  "lon": 34.5146204,
  "tags": {
    "alt_name": "مشربة",
    "name": "مشربة",
    "name:ar": "مشربة",
    "name:ar1": "مشربة",
    "name:en": "Mashraba",
    "place": "suburb"
  }
},
{
  "type": "node",
  "id": 517506008,
  "lat": 28.4974845,
  "lon": 34.5160736,
  "tags": {
    "name": "Masbat",
    "place": "suburb"
  }
},
{
  "type": "node",
  "id": 564149443,
  "lat": 24.7979027,
  "lon": 30.5890137,
  "tags": {
    "name": "Ezbet el Gaga",
    "place": "village"
  }
},
{
  "type": "node",
  "id": 564150916,
  "lat": 24.5559708,
  "lon": 30.6087547,
  "tags": {
    "name": "Ezbet el Maks el Qibli",
    "place": "village"
  }
},
{
  "type": "node",
  "id": 564151578,
  "lat": 24.5885989,
  "lon": 30.5909019,
  "tags": {
    "name": "Ezbet el Maks el Bahari",
    "place": "village"
  }
},
{
  "type": "node",
  "id": 586149170,
  "lat": 27.9511526,
  "lon": 34.3811647,
  "tags": {
    "alt_name:ar": "شاركس بي;شاركس باي",
    "name": "خليج القرش",
    "name:ar": "خليج القرش",
    "name:en": "Shark's Bay",
    "name:ru": "Шаркс-Бей",
    "place": "suburb",
    "wikidata": "Q9335929"
  }
},
{
  "type": "node",
  "id": 665528750,
  "lat": 31.4364503,
  "lon": 31.6781420,
  "tags": {
    "alt_name": "دمياط الجديدة",
    "name": "دمياط الجديدة",
    "name:ar": "دمياط الجديدة",
    "name:en": "New Damietta",
    "name:fa": "دمیاط جدید",
    "name:fr": "Nouveau Damiette",
    "name:ml": "പുതിയ ദുമ്യാത്ത്",
    "name:ru": "Новый Думьят",
    "name:uk": "Дум'ят-ель-Джадіда",
    "place": "city",
    "wikidata": "Q12211943",
    "wikimedia_commons": "Category:New Damietta",
    "wikipedia": "en:New Damietta"
  }
},
{
  "type": "node",
  "id": 670235344,
  "lat": 29.9542049,
  "lon": 31.0678606,
  "tags": {
    "alt_name": "حي الأشجار",
    "name": "حي الأشجار",
    "name:ar": "حي الأشجار",
    "name:en": "Al-Ashgar Suburb",
    "place": "suburb"
  }
},
{
  "type": "node",
  "id": 670669969,
  "lat": 31.1826669,
  "lon": 27.5201325,
  "tags": {
    "alt_name": "أبو تمر",
    "name": "أبو تمر",
    "name:ar": "أبو تمر",
    "name:ar1": "أبو تمر",
    "name:de": "Abu Tamr",
    "name:en": "Abu Tamr",
    "name:fr": "Abu Tamr",
    "place": "village"
  }
},
{
  "type": "node",
  "id": 676395184,
  "lat": 31.0162538,
  "lon": 29.6354183,
  "tags": {
    "alt_name": "سيدي كرير",
    "name": "قرية سيدي كرير للقوات المسلحة",
    "name:ar": "سيدي كرير",
    "name:en": "Sidi Krier",
    "name:fr": "Sidi Kerir",
    "place": "village"
  }
},
{
  "type": "node",
  "id": 684568710,
  "lat": 30.1400100,
  "lon": 31.3856254,
  "tags": {
    "alt_name": "قباء",
    "name": "قباء",
    "name:ar": "قباء",
    "name:en": "Qebaa",
    "name:fr": "Qobaa",
    "place": "hamlet"
  }
},
{
  "type": "node",
  "id": 699323173,
  "lat": 31.0166782,
  "lon": 31.3875202,
  "tags": {
    "name": "سندوب",
    "name:ar": "سندوب",
    "name:en": "Sandub",
    "name:fr": "Sandoub",
    "place": "village"
  }
},
{
  "type": "node",
  "id": 699327818,
  "lat": 31.0522251,
  "lon": 31.3731608,
  "tags": {
    "name": "طلخا",
    "name:ar": "طلخا",
    "name:en": "Talkha",
    "name:fr": "Talkha",
    "place": "town",
    "wikidata": "Q952118",
    "wikimedia_commons": "Category:Talkha",
    "wikipedia": "en:Talkha"
  }
},
{
  "type": "node",
  "id": 703527405,
  "lat": 30.7514077,
  "lon": 31.4585432,
  "tags": {
    "name": "ديرب نجم",
    "name:ar": "ديرب نجم",
    "name:en": "Diarb Negm",
    "place": "suburb"
  }
},
{
  "type": "node",
  "id": 703527730,
  "lat": 30.6702546,
  "lon": 31.5889562,
  "tags": {
    "name": "ههيا",
    "name:ar": "ههيا",
    "name:en": "Hihya",
    "place": "suburb"
  }
},
{
  "type": "node",
  "id": 703527799,
  "lat": 30.5768758,
  "lon": 31.5385374,
  "tags": {
    "name": "شوابك بصطا",
    "name:ar": "شوابك بصطا",
    "name:en": "Shawabak Bastah",
    "place": "suburb"
  }
},
{
  "type": "node",
  "id": 703527825,
  "lat": 30.5756935,
  "lon": 31.5579351,
  "tags": {
    "name": "طاهرة",
    "name:ar": "طاهرة",
    "name:en": "Tahirah",
    "place": "suburb"
  }
},